No.,Nombre de municipio,Nombre de localidad,Clave del Centro de Trabajo (CCT),Nombre del plantel,Matrícula,Semáforo federal,Programa,Porcentaje de avance (%),Latitud,Longitud
1,ATLIXCO,ATLIXCO,21DTV0286C,IGNACIO ALLENDE,17, DAÑO MENOR ,ESCUELAS AL CIEN 2018,100,18.916667,-98.539167
2,ATLIXCO,TOLOMETLA DE BENITO JUAREZ,21DPR1548E,FERNANDO XIMELLO,25, DAÑO MENOR ,ESCUELAS AL CIEN 2018,100,18.926111,-98.397778
3,ATLIXCO,ATLIXCO,21EPR0042H,JOSE LUIS R ALCONEDO,36, DAÑO MENOR ,ESCUELAS AL CIEN 2018,100,18.907746,-98.433345
4,TILAPA,SAN FELIX RIJO,21ETV0482D,DEFENSORES DE PUEBLA,50, DAÑO MENOR ,RECURSO ESTATAL,100,18.620278,-98.550278
5,XOCHILTEPEC,XOCHILTEPEC,21ETV0498E,SOCRATES,63, DAÑO PARCIAL ,RECURSO ESTATAL,100,18.651667,-98.343333
6,TOCHIMILCO,SANTA CRUZ CUAUTOMATITLA,21EBH1151L,BACHILLERATO DIGITAL NUM. 175,41, DAÑO MENOR ,RECURSO ESTATAL,100,18.804444,-98.624167
7,HUAQUECHULA,SANTA ANA COATEPEC,21ETV0626J,AQUILES SERDAN,19, DAÑO MENOR ,RECURSO ESTATAL,100,18.836667,-98.434722
8,HUAQUECHULA,CACALOXUCHITL,21DPR2150D,BENITO JUAREZ,425, DAÑO MENOR ,RECURSO ESTATAL,100,18.787874,-98.482288
9,ACATLÁN,ACATLAN DE OSORIO,21EMS0023V,JOSE ORTEGA BARROSO,17, DAÑO MENOR ,RECURSO ESTATAL,100,18.616389,-98.174444
10,ACATLÁN,ACATLAN DE OSORIO,21EJN1422G,PREESCOLAR GENERAL,11, DAÑO MENOR ,RECURSO ESTATAL,100,18.210948,-98.032928
11,ACATLÁN,ACATLAN DE OSORIO,21DJN2285B,JARDIN DE NIÑOS CAPEP ACATLAN,102, DAÑO MENOR ,RECURSO ESTATAL,100,18.227884,-98.035727
12,ACATLÁN,SAN BERNARDO,21DES0110I,JOSEFA ORTIZ DE DOMINGUEZ,94, DAÑO MENOR ,RECURSO ESTATAL,100,18.213333,-98.103611
13,CHIETLA,ATENCINGO,21DPR1221A,PRESIDENTE LICENCIADO ADOLFO LOPEZ MATEOS,405, DAÑO PARCIAL ,ESCUELAS AL CIEN 2018,100,18.514282,-98.606687
14,CHIETLA,ATENCINGO,21DPR1894N,PROFESOR  FELIPE FRANCO PACHECO,349, DAÑO PARCIAL ,ESCUELAS AL CIEN 2018,100,18.511528,-98.607949
15,IZÚCAR DE MATAMOROS,SAN LUCAS COLUCAN,21EES0250H,5 DE FEBRERO,137, DAÑO MENOR ,RECURSO ESTATAL,100,18.509167,-98.479722
16,IZÚCAR DE MATAMOROS,IZUCAR DE MATAMOROS,21EBH1132X,BACHILLERATO DIGITAL NUM. 158,47, DAÑO MENOR ,RECURSO ESTATAL,100,19.660406,-97.872647
17,JOLALPAN,JOLALPAN,21EPR0170C,MIGUEL HIDALGO,567, DAÑO MAYOR ,DONACIÓN,100,18.326454,-98.84559
18,TOTOLTEPEC DE GUERRERO,TOTOLTEPEC DE GUERRERO,21DST0018U,ESCUELA SECUNDARIA TECNICA NUM. 18,78, DAÑO MENOR ,RECURSO ESTATAL,100,18.223333,-97.855556
19,XAYACATLÁN DE BRAVO,TERCERA SECCION DE XAYACATLAN DE BRAVO,21DJN0611T,JUAN DOMINGUEZ MARTINEZ,20, DAÑO MENOR ,RECURSO ESTATAL,100,18.236667,-97.975833
20,ACATLÁN,SAN VICENTE BOQUERON,21DJN0271L,SEVERIANO MACEDA PEREZ,71, DAÑO MENOR ,RECURSO ESTATAL,100,18.278934,-98.055565
21,ACATLÁN,ACATLAN DE OSORIO,21DPR0981B,BRAULIO RODRIGUEZ,111, DAÑO MENOR ,RECURSO ESTATAL,100,18.031876,-98.18942
22,XAYACATLÁN DE BRAVO,XAYACATLAN DE BRAVO,21DCC0929Z,SEVERIANO MARTINEZ MUÑOZ,27, DAÑO MENOR ,RECURSO ESTATAL,100,18.247162,-97.974099
23,IZÚCAR DE MATAMOROS,SAN MANUEL LA PAROTA,21EBH1175V,BACHILLERATO DIGITAL NUM. 199,39, DAÑO MENOR ,RECURSO ESTATAL,100,19.594444,-97.751944
24,IZÚCAR DE MATAMOROS,IZUCAR DE MATAMOROS,21EBH0534K,BENEMERITO DE LAS AMERICAS,112, DAÑO MENOR ,RECURSO ESTATAL,100,18.666317,-98.45556
25,IZÚCAR DE MATAMOROS,IZUCAR DE MATAMOROS,21EBH0859Q,C.E. PRESIDENTE LAZARO CARDENAS,241, DAÑO MAYOR ,RECURSO ESTATAL,100,19.834114,-98.033686
26,IZÚCAR DE MATAMOROS,IZUCAR DE MATAMOROS,21EES0187W,C.E. PRESIDENTE LAZARO CARDENAS,565, DAÑO MAYOR ,RECURSO ESTATAL,0,18.605666,-98.468042
27,IZÚCAR DE MATAMOROS,IZUCAR DE MATAMOROS,21EJN0067Z,C.E. PRESIDENTE LAZARO CARDENAS,361, DAÑO MAYOR ,RECURSO ESTATAL,100,18.605666,-98.468042
28,ATLIXCO,LA TRINIDAD TEPANGO,21DPR2386Q,ALVARO OBREGON,274, DAÑO MENOR ,RECURSO ESTATAL,100,18.861511,-98.442526
29,IZÚCAR DE MATAMOROS,IZUCAR DE MATAMOROS,21EPR0592K,C.E. PRESIDENTE LAZARO CARDENAS,758, DAÑO MAYOR ,RECURSO ESTATAL,100,18.605666,-98.468042
30,IZÚCAR DE MATAMOROS,EL CALVARIO,21DPR1228U,CARMEN SERDAN,753, DAÑO PARCIAL ,RECURSO ESTATAL,100,18.559068,-98.556929
31,ATLIXCO,ATLIXCO,21DPR2227B,AQUILES SERDAN,124, DAÑO MENOR ,RECURSO ESTATAL,100,18.864444,-98.4225
32,ATLIXCO,ATLIXCO,21DJN1133Q,ARQUIMIDES,146, DAÑO MENOR ,RECURSO ESTATAL,100,18.908595,-98.442842
33,TEPEOJUMA,TEPEOJUMA,21EBH0138K,IRINEO VAZQUEZ,213, DAÑO MENOR ,RECURSO ESTATAL,100,19.870768,-97.467621
34,TEPEOJUMA,TEPEOJUMA,21EBH1209V,BACHILLERATO DIGITAL NUM.233,37, DAÑO MENOR ,RECURSO ESTATAL,100,18.999306,-97.928566
35,TILAPA,TILAPA,21EBH1096I,BACHILLERATO DIGITAL NUM.123,47, DAÑO MENOR ,RECURSO ESTATAL,100,19.82212,-97.741173
36,TILAPA,TILAPA,21DPR0577T,BENITO JUAREZ,318, DAÑO MENOR ,RECURSO ESTATAL,100,18.59193,-98.55656
37,TLAPANALÁ,TLAPANALA,21EMS0017K,ALBERT EINSTEIN,109, DAÑO MENOR ,RECURSO ESTATAL,100,19.200621,-97.066333
38,ATLIXCO,ATLIXCO,21DJN0828R,ATLIXCO,159, DAÑO MENOR ,RECURSO ESTATAL,100,18.915186,-98.427291
39,TLAPANALÁ,SAN LUIS CHALMA,21EJN0102P,JESUS GARCIA,27, DAÑO MENOR ,RECURSO ESTATAL,100,18.689722,-98.536667
40,TLAPANALÁ,TLAPANALA,21EBH0634J,CUITLAHUAC,56, DAÑO MENOR ,RECURSO ESTATAL,100,19.93468,-97.61888
41,XOCHILTEPEC,XOCHILTEPEC,21DJN0772F,TEXCATLIPOCA,50, DAÑO MENOR ,RECURSO ESTATAL,100,18.651667,-98.343333
42,ZACAPALA,EL ROSARIO XOCHITIOPAN,21DCC0432S,LA LUZ DEL PENSAMIENTO,62, DAÑO MENOR ,RECURSO ESTATAL,100,18.636944,-97.955278
43,ZACAPALA,LA VICTORIA,21DCC0685V,CARMEN SERDAN,49, DAÑO MENOR ,RECURSO ESTATAL,100,18.654444,-97.94
44,ZACAPALA,ZACAPALA,21TAR0047T,ALBERGUE ESCOLAR RURAL NUM. 47 TLANEXTLI,64, DAÑO MENOR ,RECURSO ESTATAL,100,18.584759,-98.063401
45,ZACAPALA,ZACAPALA,21DJN0376F,ITZAMNA,55, DAÑO MENOR ,RECURSO ESTATAL,100,18.591944,-98.065278
46,ZACAPALA,ZACAPALA,21DTV0029N,JUAN GOMEZ CAMACHO,63, DAÑO MENOR ,RECURSO ESTATAL,100,18.591944,-98.065278
47,PUEBLA,HEROICA PUEBLA DE ZARAGOZA,21DPR1323Y,LA GRAN TENOCHTITLAN,480, DAÑO MENOR ,RECURSO ESTATAL,100,18.995079,-98.177843
48,ATLIXCO,ATLIXCO,21DJN0123C,BEATRIZ JIMENEZ VDA DE HERNANDEZ,214, DAÑO MENOR ,RECURSO ESTATAL,100,18.888205,-98.413586
49,ATLIXCO,ATLIXCO,21DPR2261I,BRAULIO RODRIGUEZ,208, DAÑO MENOR ,RECURSO ESTATAL,100,18.921977,-98.450003
50,ATLIXCO,SOLARES DE TENEXTEPEC,21ETV0831T,CARMEN SERDAN,40, DAÑO MENOR ,RECURSO ESTATAL,100,18.845,-98.341667
51,ATLIXCO,ATLIXCO,21DML0005N,CENTRO DE ATENCIÓN MÚLTIPLE CALMECAC,67, DAÑO MENOR ,RECURSO ESTATAL,100,19.270674,-98.44273
52,ATLIXCO,SANTA CRUZ TEHUIXPANGO,21DJN2337R,CUAUHTEMOC,96, DAÑO MENOR ,RECURSO ESTATAL,100,18.939167,-98.403333
53,ACATLÁN,ACATLAN DE OSORIO,21EBH0001Y,C.E. PRESIDENTE LICENCIADO BENITO JUAREZ,528, DAÑO MENOR ,RECURSO ESTATAL,100,19.105556,-98.463611
54,CHIAUTLA,CIUDAD DE CHIAUTLA DE TAPIA,21EJN0087N,EVA RIVADENEYRA,75, DAÑO MENOR ,RECURSO ESTATAL,100,18.295355,-98.599864
55,CHIAUTLA,CIUDAD DE CHIAUTLA DE TAPIA,21DSN0012P,IGNACIO RAMIREZ,39, DAÑO MENOR ,RECURSO ESTATAL,100,18.298618,-98.601427
56,CHIAUTLA,SANTA ANA TECOLAPA,21DTV0088C,ESCUDO NACIONAL,23, DAÑO MENOR ,RECURSO ESTATAL,100,18.385556,-98.651944
57,CHIAUTLA,TLANCUALPICAN,21EJN0540O,MARIA DE LOS ANGELES FLORES FRONTAN,80, DAÑO MENOR ,RECURSO ESTATAL,100,18.429574,-98.69261
58,ATLIXCO,COLONIA AGRICOLA DE OCOTEPEC (COLONIA SAN JOSE),21DCC0034U,EMILIANO ZAPATA,108, DAÑO MENOR ,RECURSO ESTATAL,100,18.929722,-98.544444
59,ACATLÁN,ACATLAN DE OSORIO,21DML0035H,CENTRO DE ATENCION MULTIPLE,30, DAÑO MENOR ,RECURSO ESTATAL,100,19.464301,-97.689118
60,CUAYUCA DE ANDRADE,SAN PEDRO CUAYUCA,21DPR2093C,MELCHOR OCAMPO,140, DAÑO MENOR ,RECURSO ESTATAL,100,18.488333,-98.183333
61,XAYACATLÁN DE BRAVO,XAYACATLAN DE BRAVO,21DPR2732I,MANUEL ROJAS,96, DAÑO MENOR ,RECURSO ESTATAL,100,18.236667,-97.975833
62,ATLIXCO,SAN FELIX HIDALGO,21DPR1540M,EMILIANO ZAPATA,279, DAÑO MENOR ,RECURSO ESTATAL,100,18.9,-98.400833
63,ATLIXCO,ATLIXCO,21DST0151A,ESCUELA SECUNDARIA TECNICA NUM. 140,129, DAÑO PARCIAL ,RECURSO ESTATAL,100,18.908889,-98.437778
64,ATLIXCO,ATLIXCO,21DST0003S,ESCUELA SECUNDARIA TECNICA NUM. 3,1381, DAÑO MENOR ,RECURSO ESTATAL,100,18.896816,-98.439199
65,ATLIXCO,ATLIXCO,21DST0083U,ESCUELA SECUNDARIA TECNICA NUM. 72,391, DAÑO MENOR ,RECURSO ESTATAL,100,18.891979,-98.447363
66,ATLIXCO,ATLIXCO,21DJN1033R,FORTINO AYAQUICA,145, DAÑO MENOR ,RECURSO ESTATAL,100,18.892962,-98.446359
67,ATLIXCO,ATLIXCO,21DJN2341D,FRANCISCO GABILONDO SOLER,137, DAÑO MENOR ,RECURSO ESTATAL,100,18.919383,-98.425102
68,ATLIXCO,ATLIXCO,21DPR3519X,HERMANOS SERDAN,60, DAÑO MENOR ,RECURSO ESTATAL,100,18.933333,-98.394167
69,ATLIXCO,ATLIXCO,21DPR0950I,IGNACIO ZARAGOZA,623, DAÑO MENOR ,RECURSO ESTATAL,100,18.917957,-98.419903
70,ATLIXCO,SAN ISIDRO HUILOTEPEC,21ETV0625K,IGNACIO ZARAGOZA,50, DAÑO MENOR ,RECURSO ESTATAL,100,18.880833,-98.383056
71,ATLIXCO,SANTA LUCIA COSAMALOAPAN,21ETV0081I,JOSE AZUETA,109, DAÑO MENOR ,RECURSO ESTATAL,100,18.883611,-98.351944
72,PUEBLA,HEROICA PUEBLA DE ZARAGOZA,21EPR1587F,BICENTENARIO,353, DAÑO MENOR ,RECURSO ESTATAL,100,18.985075,-98.27524
73,TOCHIMILCO,SAN ANTONIO ALPANOCAN,21ETV0531W,AGUSTIN YAÑEZ,190, DAÑO MENOR ,RECURSO ESTATAL,100,18.876608,-98.705027
74,TOCHIMILCO,TECUANIPA (SAN MIGUEL TECUANIPA),21EBH1228J,BACHILLERATO DIGITAL NUM. 252,39, DAÑO MENOR ,RECURSO ESTATAL,100,18.887222,-98.609167
75,TOCHIMILCO,TECUANIPA (SAN MIGUEL TECUANIPA),21ETV0529H,EMILIANO ZAPATA,84, DAÑO MENOR ,RECURSO ESTATAL,100,18.881111,-98.619167
76,TOCHIMILCO,TOCHIMILCO,21DES0089W,JAIME TORRES BODET,307, DAÑO PARCIAL ,RECURSO ESTATAL,100,18.889794,-98.56483
77,ACATLÁN,BARRIO SANTIAGO ILAMACINGO,21DCC0278P,CARMEN SERDAN,23, DAÑO MENOR ,RECURSO ESTATAL,100,18.019722,-98.241389
78,ATLIXCO,SAN JERONIMO COYULA,21ETV0077W,JOSE LUIS RODRIGUEZ ALCONEDO,104, DAÑO MENOR ,RECURSO ESTATAL,100,18.894612,-98.514305
79,ATLIXCO,EL LEON,21DPR2280X,JOSE MARIA MORELOS,282, DAÑO MENOR ,RECURSO ESTATAL,100,18.929164,-98.461382
80,EPATLÁN,SANTA ANA NECOXTLA,21DTV0153M,EVARISTO VARGAS PEDRAZA,135, DAÑO MENOR ,RECURSO ESTATAL,100,18.6125,-98.383889
81,EPATLÁN,SANTA ANA NECOXTLA,21DJN0603K,FRAY PEDRO DE GANTE,67, DAÑO MENOR ,RECURSO ESTATAL,100,18.6125,-98.383889
82,ATLIXCO,SAN DIEGO ACAPULCO,21DPR2262H,JOSE MIJARES PALENCIA,197, DAÑO MENOR ,RECURSO ESTATAL,100,18.879209,-98.4483
83,IZÚCAR DE MATAMOROS,IZUCAR DE MATAMOROS,21DML0011Y,CENTRO DE ATENCION MULTIPLE,72, DAÑO MENOR ,RECURSO ESTATAL,100,20.278212,-97.965523
84,ATLIXCO,ATLIXCO,21DST0149M,JOSEFA ORTIZ DE DOMINGUEZ,83, DAÑO MENOR ,RECURSO ESTATAL,0,18.908889,-98.437778
85,IZÚCAR DE MATAMOROS,SAN NICOLAS TOLENTINO,21DJN0035I,CUAUHTEMOC,163, DAÑO MENOR ,RECURSO ESTATAL,100,18.552902,-98.502366
86,JOLALPAN,JOLALPAN,21ETV0394J,NETZAHUALCOYOTL,289, DAÑO PARCIAL ,ESCUELAS AL CIEN 2018,100,18.320398,-98.844351
87,GUADALUPE,GUADALUPE,21EJN1098Z,UNIDAD EDUCATIVA MIGUEL HIDALGO,69, DAÑO MENOR ,RECURSO ESTATAL,100,18.092796,-98.122186
88,PETLALCINGO,PETLALCINGO,21EBH0091G,PROFESORA MARGARITA DE GORTARI DE SALINAS,228, DAÑO MENOR ,RECURSO ESTATAL,100,18.968136,-97.905294
89,PETLALCINGO,EL LIMON,21DJN0993Q,CARMEN SERDAN,14, DAÑO MENOR ,RECURSO ESTATAL,100,17.987778,-97.951667
90,PETLALCINGO,PETLALCINGO,21DCC0424J,GABRIELA MISTRAL,20, DAÑO MENOR ,RECURSO ESTATAL,100,18.051111,-97.84
91,PIAXTLA,LOMA BONITA,21DCC0829A,DAKUA VE,17, DAÑO MENOR ,RECURSO ESTATAL,100,17.977222,-98.316111
92,PIAXTLA,PIAXTLA,21DJN0134I,ENRIQUE C REBSAMEN,68, DAÑO MENOR ,RECURSO ESTATAL,100,18.197778,-98.26
93,JOLALPAN,JOLALPAN,21EBH1180G,BACHILLERATO DIGITAL NUM. 204,47, DAÑO PARCIAL ,ESCUELAS AL CIEN 2018,100,20.47833,-97.94286
94,PIAXTLA,PROGRESO,21DJN0394V,VALOIS HERRERA MERINO,75, DAÑO MENOR ,RECURSO ESTATAL,100,18.036667,-98.310556
95,PIAXTLA,TECUAUTITLAN,21DJN0770H,JOSEFA ORTIZ DE DOMINGUEZ,19, DAÑO MENOR ,RECURSO ESTATAL,100,18.154906,-98.308836
96,PIAXTLA,YETLA,21DCC1117J,TIERRA Y LIBERTAD,15, DAÑO MENOR ,RECURSO ESTATAL,100,17.993056,-98.315278
97,ATLIXCO,SANTO DOMINGO ATOYATEMPAN,21DPR1536Z,MANUEL DOMINGUEZ,204, DAÑO MENOR ,RECURSO ESTATAL,100,18.904444,-98.373056
98,ATLIXCO,ATLIXCO,21DES0114E,MARTIRES DE RIO BLANCO,253, DAÑO MENOR ,RECURSO ESTATAL,100,18.943102,-98.471574
99,ATLIXCO,ATLIXCO,21DES0004Z,MELCHOR OCAMPO,1354, DAÑO MENOR ,RECURSO ESTATAL,100,18.895612,-98.437246
100,ATLIXCO,ATLIXCO,21DJN0155V,METEPEC,145, DAÑO MAYOR ,RECURSO ESTATAL,100,18.937848,-98.473216
101,ATLIXCO,EX-HACIENDA SAN FELIX,21EPR0044F,MIGUEL HIDALGO,80, DAÑO MENOR ,RECURSO ESTATAL,100,18.911389,-98.385278
102,COATZINGO,ZARAGOZA,21EJN1064J,PAZ AMERICANA,24, DAÑO PARCIAL ,RECURSO ESTATAL,100,18.586944,-98.1775
103,PIAXTLA,PROGRESO,21DES0048W,NARCISO BASSOLS,116, DAÑO PARCIAL ,RECURSO ESTATAL,100,18.036667,-98.310556
104,CUAUTLANCINGO,SAN JUAN CUAUTLANCINGO,21EBH0095C,5 DE MAYO,293, DAÑO MENOR ,RECURSO ESTATAL,100,18.610394,-98.472774
105,HUEJOTZINGO,SANTA MARIA ATEXCAC,21EJN1273P,YOLOT`SI,79, DAÑO MENOR ,RECURSO ESTATAL,100,19.135974,-98.487752
106,SAN PEDRO CHOLULA,CHOLULA DE RIVADAVIA,21EBH0062L,NICOLAS REYES ALEGRE,260, DAÑO MENOR ,RECURSO ESTATAL,100,18.043415,-98.427624
107,AXUTLA,AXUTLA,21DJN0073L,SILVESTRE REVUELTAS,28, DAÑO MENOR ,RECURSO ESTATAL,100,18.189167,-98.39
108,ALBINO ZERTUCHE,ACAXTLAHUACAN DE ALBINO ZERTUCHE,21ETV0538P,ALBINO ZERTUCHE,97, DAÑO MENOR ,RECURSO ESTATAL,100,18.012065,-98.539089
109,CALPAN,SAN MATEO OZOLCO,21DJN0452V,FELIPE CARRILLO PUERTO,98, DAÑO MENOR ,RECURSO ESTATAL,100,19.099143,-98.511842
110,CHIAUTLA,CIUDAD DE CHIAUTLA DE TAPIA,21EJN0057T,C.E. GENERAL EMILIANO ZAPATA,128, DAÑO MENOR ,RECURSO ESTATAL,100,18.302893,-98.610695
111,CHIAUTLA,CIUDAD DE CHIAUTLA DE TAPIA,21EPR0081J,FILIBERTO QUIROS,107, DAÑO MENOR ,RECURSO ESTATAL,100,18.257142,-98.487765
112,CHIAUTLA,PILCAYA (SAN JUAN PILCAYA),21ETV0378S,ALBERTO GARCIA GRANADOS,71, DAÑO MAYOR ,RECURSO ESTATAL,100,18.236944,-98.706944
113,CHIAUTLA,SANTA ANA TECOLAPA,21EPR0648W,NIÑOS HEROES,35, DAÑO MENOR ,RECURSO ESTATAL,100,18.385556,-98.651944
114,CHIAUTLA,PILCAYA (SAN JUAN PILCAYA),21EPR0720P,AVELINO CORTES GARCIA,41, DAÑO MENOR ,RECURSO ESTATAL,100,18.236944,-98.706944
115,CHIAUTLA,CIUDAD DE CHIAUTLA DE TAPIA,21EPR0735R,C.E. GENERAL EMILIANO ZAPATA,290, DAÑO MENOR ,RECURSO ESTATAL,100,18.302829,-98.610653
116,PIAXTLA,PIAXTLA,21DES0035S,CAUDILLOS DEL SUR,91, DAÑO PARCIAL ,RECURSO ESTATAL,100,18.197778,-98.26
117,AHUEHUETITLA,AHUEHUETITLA,21ETV0354I,HONORATO DE BALZAC,14, DAÑO MENOR ,RECURSO ESTATAL,100,18.265556,-98.197778
118,AHUEHUETITLA,GUADALUPE ALCHIPINI,21DPR1598M,VICENTE GUERRERO,52, DAÑO MENOR ,RECURSO ESTATAL,100,18.265556,-98.197778
119,CHILA,CHILA,21DJN0103P,FRAY BARTOLOME DE LAS CASAS,83, DAÑO MENOR ,RECURSO ESTATAL,100,17.971667,-97.862222
120,CHINANTLA,BUENAVISTA (SAN MIGUEL),21DPR1599L,PROSPERIDAD CAMPESINA,37, DAÑO MENOR ,RECURSO ESTATAL,100,18.248611,-98.271111
121,CHINANTLA,CHINANTLA,21DJN0110Z,ALBERT EINSTEIN,68, DAÑO MENOR ,RECURSO ESTATAL,100,18.201389,-98.262778
122,CHINANTLA,CHINANTLA,21DPR1600K,MIGUEL HIDALGO,147, DAÑO MENOR ,RECURSO ESTATAL,100,18.201389,-98.262778
123,COYOTEPEC,SAN VICENTE COYOTEPEC,21DTV0087D,LEONARDO VARGAS MACHADO,107, DAÑO MENOR ,RECURSO ESTATAL,100,18.405833,-97.831389
124,COYOTEPEC,SAN VICENTE COYOTEPEC,21DCC0788R,SOR JUANA INES DE LA CRUZ,17, DAÑO MENOR ,RECURSO ESTATAL,100,18.405833,-97.831389
125,COYOTEPEC,SAN MATEO ZOYAMAZALCO,21ETV0174Y,LUIS G. BASURTO,27, DAÑO MENOR ,OTROS RECURSOS,100,18.42,-97.800833
126,TEPEXI DE RODRÍGUEZ,CHAPULTEPEC (SANTO DOMINGO),21DPR0497H,NIÑOS HEROES,79, DAÑO MENOR ,RECURSO ESTATAL,100,18.4867,-97.990738
127,TEPEXI DE RODRÍGUEZ,EL PROGRESO (SAN ANTONIO),21DJN0522Z,ERNESTO ELORDY,75, DAÑO MENOR ,RECURSO ESTATAL,100,18.561944,-97.858056
128,TEPEXI DE RODRÍGUEZ,EL RANCHITO (BARRIO DE SAN PEDRO 1RA. SECCION),21DCC0863H,NARCISO BASSOLS,26, DAÑO MENOR ,RECURSO ESTATAL,100,18.580009,-97.935186
129,TEPEXI DE RODRÍGUEZ,SAN FELIPE OTLALTEPEC,21DPR0503B,IGNACIO ZARAGOZA,202, DAÑO MENOR ,RECURSO ESTATAL,100,18.401944,-97.908611
130,TEPEXI DE RODRÍGUEZ,TEPEXI DE RODRIGUEZ,21DJN0083S,CAROLINA BONILLA,185, DAÑO MENOR ,RECURSO ESTATAL,100,18.575224,-97.928343
131,TEPEXI DE RODRÍGUEZ,TEPEXI DE RODRIGUEZ,21DCC1112O,ITZCOATL,13, DAÑO MENOR ,RECURSO ESTATAL,100,18.581461,-97.92428
132,TEPEXI DE RODRÍGUEZ,TEPEXI DE RODRIGUEZ,21DPR2229Z,PADRE DE LA PATRIA,110, DAÑO MENOR ,RECURSO ESTATAL,100,18.579382,-97.934078
133,PIAXTLA,PIAXTLA,21DPR1603H,MAXIMINO AVILA CAMACHO,57, DAÑO MENOR ,RECURSO ESTATAL,100,18.197778,-98.26
134,TEPEXI DE RODRÍGUEZ,TEPEXI DE RODRIGUEZ,21DPB0427L,MARGARITA MAZA DE JUAREZ,80, DAÑO MENOR ,RECURSO ESTATAL,100,18.539454,-98.010509
135,TEPEXI DE RODRÍGUEZ,TULA,21DJN0529T,PABLO NERUDA,81, DAÑO MENOR ,RECURSO ESTATAL,100,18.539444,-97.909722
136,TEPEXI DE RODRÍGUEZ,ZACATEPEC,21DPB0527K,LICENCIADO BENITO JUAREZ,17, DAÑO MENOR ,RECURSO ESTATAL,100,18.545452,-98.032741
137,ATZITZIHUACÁN,SAN FRANCISCO XOCHITEOPAN,21ETV0832S,JAIME SABINES,56, DAÑO MENOR ,RECURSO ESTATAL,100,18.866259,-98.479422
138,ATZITZIHUACÁN,SAN JUAN TEJUPA,21ETV0085E,JESUS ALONSO FLORES,108, DAÑO MENOR ,RECURSO ESTATAL,100,18.849729,-98.542676
139,ATZITZIHUACÁN,ATZITZIHUACAN,21ETV0083G,JOHN NEPPER,61, DAÑO MENOR ,RECURSO ESTATAL,100,18.822487,-98.576623
140,ATZITZIHUACÁN,SAN PEDRO IXHUATEPEC,21DTV0197J,LAZARO CARDENAS,58, DAÑO MENOR ,RECURSO ESTATAL,100,18.795278,-98.636389
141,ATZITZIHUACÁN,SANTIAGO ATZITZIHUACAN,21DJN0367Y,MAXIMO SERDAN,38, DAÑO MENOR ,RECURSO ESTATAL,100,18.822199,-98.580738
142,ATZITZIHUACÁN,SAN MIGUEL AGUACOMULICAN,21ETV0675S,MIGUEL HIDALGO,64, DAÑO MENOR ,RECURSO ESTATAL,100,18.822222,-98.550556
143,OCOYUCAN,SANTA MARIA MALACATEPEC,21DJN0372J,SALVADOR NOVO,171, DAÑO MENOR ,RECURSO ESTATAL,100,18.952733,-98.295761
144,OCOYUCAN,SANTA MARTHA HIDALGO,21ETV0654F,LAZARO CARDENAS DEL RIO,45, DAÑO MENOR ,RECURSO ESTATAL,100,18.985,-98.324444
145,SAN DIEGO LA MESA TOCHIMILTZINGO,TOCHIMILTZINGO,21DPR1552R,GENERAL IGNACIO ZARAGOZA,79, DAÑO MENOR ,RECURSO ESTATAL,100,18.810833,-98.330556
146,SAN GREGORIO ATZOMPA,SAN GREGORIO ATZOMPA,21DJN0856N,GREGORIO ATZOMPA,110, DAÑO MENOR ,RECURSO ESTATAL,100,19.026381,-98.34526
147,SAN GREGORIO ATZOMPA,SAN GREGORIO ATZOMPA,21EBH0314Z,GUILLERMO GONZALEZ CAMARENA,87, DAÑO MENOR ,RECURSO ESTATAL,100,18.979588,-98.339968
148,CHIETLA,ESCAPE DE LAGUNILLAS,21DPR3717X,GABRIELA MISTRAL,253, DAÑO PARCIAL ,ESCUELAS AL CIEN 2018,100,18.484444,-98.660556
149,CHIAUTLA,TLANCUALPICAN,21EPR0085F,MIGUEL HIDALGO,282, DAÑO MENOR ,RECURSO ESTATAL,100,18.430181,-98.695917
150,CHIETLA,ATENCINGO,21DPR0549X,MIGUEL HIDALGO,315, DAÑO PARCIAL ,ESCUELAS AL CIEN 2018,100,18.501806,-98.620298
151,CHILA DE LA SAL,CHILA DE LA SAL,21ETV0399E,MARIANO ESCOBEDO,34, DAÑO MENOR ,RECURSO ESTATAL,100,18.11,-98.484167
152,COHETZALA,EL PLATANAR (SAN JOSE EL PLATANAR),21EJN0107K,PILTZINCALLI,15, DAÑO MENOR ,RECURSO ESTATAL,100,18.294162,-98.7301
153,COHETZALA,SANTA MARIA COHETZALA,21EBH1160T,BACHILLERATO DIGITAL NUM. 183,20, DAÑO MENOR ,RECURSO ESTATAL,100,18.481111,-98.596667
154,HUEHUETLÁN EL CHICO,HUEHUETLAN EL CHICO,21EES0265J,PROFESOR  HONORATO TLASECA BARRERA,169, DAÑO MENOR ,RECURSO ESTATAL,100,18.378712,-98.688176
155,HUEHUETLÁN EL CHICO,HUEHUETLAN EL CHICO,21DJN0001S,RAFAEL MORENO VALLE,73, DAÑO MENOR ,RECURSO ESTATAL,100,18.372603,-98.693887
156,HUEHUETLÁN EL CHICO,HUEHUETLAN EL CHICO,21EJN0539Z,ANA MARIA ARRUEL CASTAÑON,77, DAÑO MENOR ,RECURSO ESTATAL,100,18.372993,-98.682052
157,HUEHUETLÁN EL CHICO,HUEHUETLAN EL CHICO,21EPR0142G,IGNACIO ZARAGOZA,116, DAÑO MENOR ,RECURSO ESTATAL,100,18.372993,-98.682052
158,HUEHUETLÁN EL CHICO,HUEHUETLAN EL CHICO,21EJN0556P,PROFESOR  HONORATO TLASECA BARRERA,78, DAÑO MENOR ,RECURSO ESTATAL,100,18.378712,-98.688176
159,HUEHUETLÁN EL CHICO,TZICATLAN,21EJN0849C,CARMEN G. BASURTO,109, DAÑO MENOR ,RECURSO ESTATAL,100,18.452815,-98.757317
160,ATLIXCO,SAN JUAN OCOTEPEC,21DCC0033V,NETZAHUALCOYOTL,87, DAÑO MENOR ,RECURSO ESTATAL,100,18.935,-98.547222
161,ATLIXCO,SAN ESTEBAN ZOAPILTEPEC,21ETV0956A,NICOLÁS BRAVO,58, DAÑO MENOR ,RECURSO ESTATAL,100,19.069892,-97.382248
162,ATLIXCO,LA SABANA (SAN JUAN LA SABANA),21ETV0065R,PLUTARCO ELIAS CALLES,50, DAÑO MENOR ,RECURSO ESTATAL,100,18.831111,-98.455556
163,ATLIXCO,LA MAGDALENA,21DCC0295F,POPOCATEPETL,139, DAÑO MENOR ,RECURSO ESTATAL,100,18.914612,-98.463279
164,ATLIXCO,ACATZINGO,21DJN2511H,PREESCOLAR GENERAL,45, DAÑO MENOR ,RECURSO ESTATAL,100,18.9257666,-98.444697
165,ATLIXCO,ATLIXCO,21DST0150B,ESCUELA SECUNDARIA TECNICA NUM. 139,83, DAÑO MENOR ,OTROS RECURSOS,0,18.908889,-98.437778
166,ATLIXCO,LA MAGDALENA,21ETV0058H,RAFAEL MORENO VALLE,232, DAÑO MENOR ,RECURSO ESTATAL,100,18.90947,-98.468425
167,ATLIXCO,SAN ALFONSO,21DJN2340E,RAFAEL RAMIREZ CASTAÑEDA,114, DAÑO MENOR ,RECURSO ESTATAL,100,18.912373,-98.408583
168,ATLIXCO,ATLIXCO,21DJN0914N,REVOLUCION MEXICANA,78, DAÑO MENOR ,RECURSO ESTATAL,100,18.905102,-98.428806
169,ATLIXCO,SAN JERONIMO CALERAS,21ETV0830U,ROSARIO CASTELLANOS,72, DAÑO MENOR ,RECURSO ESTATAL,100,20.155933,-97.615568
170,ATLIXCO,EL LEON,21DJN0122D,ROSAURA ZAPATA,101, DAÑO MENOR ,RECURSO ESTATAL,100,18.930683,-98.461051
171,ATLIXCO,SANTA CRUZ TEHUIXPANGO,21DST0146P,"SECUNDARIA TECNICA NUM. 135  ""CITLALMINA""",163, DAÑO MENOR ,RECURSO ESTATAL,100,18.939167,-98.403333
172,ACATLÁN,ACATLAN DE OSORIO,21DES0003Z,FRAY BARTOLOME DE LAS CASAS,875, DAÑO MENOR ,RECURSO ESTATAL,100,18.194013,-98.048781
173,ACATLÁN,ACATLAN DE OSORIO,21DPR2291C,IGNACIO ZARAGOZA,108, DAÑO MENOR ,RECURSO ESTATAL,100,18.257222,-98.012222
174,ACATLÁN,ACATLAN DE OSORIO,21DJN0029Y,ROSAURA ZAPATA,210, DAÑO MENOR ,RECURSO ESTATAL,100,18.193705,-98.051275
175,ACATLÁN,AMATITLAN DE AZUETA,21DPR2294Z,VICENTE GUERRERO,206, DAÑO MENOR ,RECURSO ESTATAL,100,18.176389,-98.078333
176,ACATLÁN,SAN VICENTE BOQUERON,21DES0101A,ALEJANDRO QUIJANO,157, DAÑO MENOR ,RECURSO ESTATAL,100,18.280709,-98.057044
177,IZÚCAR DE MATAMOROS,IZUCAR DE MATAMOROS,21DJN0905F,ERNESTO HERRERA ACEVEDO,209, DAÑO MENOR ,RECURSO ESTATAL,100,18.610394,-98.472774
178,CHIETLA,BUENAVISTA DE BENITO JUAREZ,21ETV0386A,MARIANO AZUETA,103, DAÑO PARCIAL ,ESCUELAS AL CIEN 2018,100,18.460556,-98.636389
179,CORONANGO,SAN FRANCISCO OCOTLAN,21DJN0230L,DOCTOR ALEJANDRO FLEMING,189, DAÑO MENOR ,RECURSO ESTATAL,100,19.133357,-98.282242
180,ATLIXCO,ATLIXCO,21ETV0781B,SIGLO XXI,53, DAÑO MENOR ,RECURSO ESTATAL,100,19.177284,-97.111367
181,CUAUTLANCINGO,SAN JUAN CUAUTLANCINGO,21EJN0079E,PILTZINCALLI,153, DAÑO MENOR ,RECURSO ESTATAL,100,19.059079,-98.248766
182,HUEHUETLÁN EL GRANDE,SAN ANTONIO COATEPEC (TIERRA BLANCA),21DJN0375G,JOSE ANGEL CENICEROS,35, DAÑO MENOR ,RECURSO ESTATAL,100,18.733167,-98.155802
183,HUEJOTZINGO,HUEJOTZINGO,21EBH0720F,MARIO MOLINA,150, DAÑO MENOR ,RECURSO ESTATAL,100,20.275278,-98.125
184,HUEJOTZINGO,SANTA ANA XALMIMILULCO,21DST0154Y,ESCUELA SECUNDARIA TECNICA NUM. 143,186, DAÑO MENOR ,RECURSO ESTATAL,100,19.211944,-98.383056
185,HUEJOTZINGO,SANTA ANA XALMIMILULCO,21DJN0192Z,XALMIMILULCO,396, DAÑO MENOR ,RECURSO ESTATAL,100,19.20727,-98.383894
186,HUEJOTZINGO,SANTA MARIA NEPOPUALCO,21DJN0095X,NEPOPUALCO,180, DAÑO MENOR ,RECURSO ESTATAL,100,19.152156,-98.487617
187,HUEJOTZINGO,SANTA MARIA TIANGUISTENCO,21DJN0459O,GANDHI,52, DAÑO MENOR ,RECURSO ESTATAL,100,19.157222,-98.444167
188,IZÚCAR DE MATAMOROS,BOMBA 4,21DST0113Y,ESCUELA SECUNDARIA TECNICA NUM. 105,46, DAÑO MENOR ,RECURSO ESTATAL,100,18.600439,-98.490654
189,IZÚCAR DE MATAMOROS,SAN JUAN COLON,21DST0015X,ESCUELA SECUNDARIA TECNICA NUM. 15,231, DAÑO MAYOR ,RECURSO ESTATAL,100,18.577222,-98.558333
190,IZÚCAR DE MATAMOROS,SAN JUAN RABOSO,21DST0028A,ESCUELA SECUNDARIA TECNICA NUM. 26,303, DAÑO MENOR ,RECURSO ESTATAL,100,18.573525,-98.443361
191,HUAQUECHULA,TEZONTEOPAN DE BONILLA,21ETV0105B,CADETE JUAN ESCUTIA,115, DAÑO MENOR ,RECURSO ESTATAL,100,18.748889,-98.491389
192,JUAN C. BONILLA,SANTA MARIA ZACATEPEC,21DPR3054H,IGNACIO ZARAGOZA,618, DAÑO MENOR ,RECURSO ESTATAL,100,19.124143,-98.366501
193,JUAN C. BONILLA,SANTA MARIA ZACATEPEC,21DJN0048M,PATRIA,248, DAÑO MENOR ,RECURSO ESTATAL,100,19.124046,-98.364331
194,PUEBLA,HEROICA PUEBLA DE ZARAGOZA,21DML0022D,CENTRO DE ATENCION MULTIPLE,27, DAÑO MENOR ,RECURSO ESTATAL,100,19.01515,-98.196164
195,PUEBLA,HEROICA PUEBLA DE ZARAGOZA,21DPR3538L,HERMANOS SERDAN,283, DAÑO MENOR ,RECURSO ESTATAL,100,18.994779,-98.189091
196,PUEBLA,SAN ANDRES AZUMIATLA,21DPR1569R,HERMENEGILDO GALEANA,511, DAÑO MENOR ,RECURSO ESTATAL,100,18.891946,-98.262838
197,PUEBLA,SAN ANDRES AZUMIATLA,21DPR3688S,PRIMARIA FEDERAL,266, DAÑO MENOR ,RECURSO ESTATAL,100,18.902914,-98.253072
198,PUEBLA,SAN MIGUEL,21DML0021E,CENTRO DE ATENCION MULTIPLE,76, DAÑO MENOR ,RECURSO ESTATAL,100,18.433496,-97.400423
199,PUEBLA,HEROICA PUEBLA DE ZARAGOZA,21EML0013V,CAM HECTOR MANUEL DELGADILLO ROMERO,35, DAÑO MENOR ,OTROS RECURSOS,100,19.839444,-98.032778
200,AHUATLÁN,AHUATLAN,21EMS0018J,JOSE VASCONCELOS,48, DAÑO MENOR ,RECURSO ESTATAL,100,18.696423,-98.537621
201,COHUECAN,COHUECAN,21EMS0021X,JOSE MARIA MORELOS Y PAVON,69, DAÑO MENOR ,RECURSO ESTATAL,100,18.278333,-98.966389
202,CUAYUCA DE ANDRADE,CUAJILOTE,21DCC0390J,SOR JUANA INES DE LA CRUZ,13, DAÑO MENOR ,RECURSO ESTATAL,100,18.43,-98.139167
203,EPATLÁN,SAN JUAN EPATLAN,21EPR0118G,MIGUEL HIDALGO Y COSTILLA,193, DAÑO MAYOR ,RECURSO ESTATAL,100,18.642778,-98.370556
204,EPATLÁN,SAN MATEO OXTOTLA,21EJN0285N,VENUSTIANO CARRANZA,13, DAÑO MENOR ,RECURSO ESTATAL,100,18.607778,-98.389444
205,EPATLÁN,SANTA ANA NECOXTLA,21DPR2169B,VICENTE GUERRERO,165, DAÑO MAYOR ,RECURSO ESTATAL,100,18.6125,-98.383889
206,HUAQUECHULA,TEZONTEOPAN DE BONILLA,21DPR3413D,CARMEN SERDAN,270, DAÑO MENOR ,RECURSO ESTATAL,100,18.748889,-98.491389
207,HUAQUECHULA,TEZONTEOPAN DE BONILLA,21DJN0595S,CONAHTL,133, DAÑO MENOR ,RECURSO ESTATAL,100,18.748889,-98.491389
208,HUAQUECHULA,SAN ANTONIO CUAUTLA,21DPR2156Y,CUAUHTEMOC,33, DAÑO MENOR ,RECURSO ESTATAL,100,18.805,-98.554444
209,HUAQUECHULA,HUAQUECHULA,21DJN0584M,CUICACALLI,167, DAÑO MENOR ,RECURSO ESTATAL,100,18.769622,-98.542023
210,HUAQUECHULA,SANTA ANA COATEPEC,21DPR0956C,EMILIANO ZAPATA,104, DAÑO MENOR ,RECURSO ESTATAL,100,18.836667,-98.434722
211,HUAQUECHULA,CACALOXUCHITL,21DJN0641N,ENRIQUE GONZALEZ MARTINEZ,178, DAÑO MENOR ,RECURSO ESTATAL,100,18.787577,-98.483395
212,HUAQUECHULA,HUAQUECHULA,21DST0042U,ESCUELA SECUNDARIA TECNICA NUM. 37,298, DAÑO MENOR ,RECURSO ESTATAL,100,18.768723,-98.535971
213,HUAQUECHULA,CHAMPUSCO (SECUNDARIA TECNICA NUMERO 4) [ESCUELA],21DST0004R,ESCUELA SECUNDARIA TECNICA NUM. 4 GENERAL EMILIANO ZAPATA,342, DAÑO PARCIAL ,RECURSO ESTATAL,100,18.795278,-98.464444
214,HUAQUECHULA,HUAQUECHULA,21DTV0382F,HIMNO NACIONAL,39, DAÑO MENOR ,RECURSO ESTATAL,100,18.805,-98.483611
215,PUEBLA,HEROICA PUEBLA DE ZARAGOZA,21DPR0249Z,VICENTE GUERRERO,464, DAÑO MAYOR ,RECURSO ESTATAL,100,19.081114,-98.247379
216,IZÚCAR DE MATAMOROS,LA GALARZA,21DJN0186O,GUSTAVO ADOLFO BEQUER,145, DAÑO MENOR ,RECURSO ESTATAL,100,18.670424,-98.453294
217,IZÚCAR DE MATAMOROS,IZUCAR DE MATAMOROS,21DJN2296H,JARDIN DE NIÑOS CAPEP IZUCAR,30, DAÑO MENOR ,RECURSO ESTATAL,100,18.59717,-98.490549
218,IZÚCAR DE MATAMOROS,BARRIO SANTIAGO,21EJN0094X,JUAN DE LA BARRERA,146, DAÑO MENOR ,RECURSO ESTATAL,100,18.60743,-98.458316
219,IZÚCAR DE MATAMOROS,MATZACO,21DJN0150Z,LICENCIADO ADOLFO LOPEZ MATEOS,140, DAÑO MENOR ,RECURSO ESTATAL,100,18.555969,-98.490765
220,IZÚCAR DE MATAMOROS,IZUCAR DE MATAMOROS,21EJN0093Y,LICENCIADO JOSE VASCONCELOS,130, DAÑO MENOR ,RECURSO ESTATAL,100,18.596796,-98.462201
221,IZÚCAR DE MATAMOROS,IZUCAR DE MATAMOROS,21DJN0156U,MARIANO MATAMOROS,366, DAÑO MENOR ,RECURSO ESTATAL,100,18.559068,-98.556929
222,PUEBLA,HEROICA PUEBLA DE ZARAGOZA,21EPR1500K,LIBERTADORES DE AMERICA,222, DAÑO MENOR ,RECURSO ESTATAL,100,18.995145,-98.252411
223,TOCHIMILCO,SANTA CRUZ CUAUTOMATITLA,21DPR0698E,PROFESOR  JOSE RAMIREZ,192, DAÑO MAYOR ,RECURSO ESTATAL,100,18.889167,-98.659167
224,PUEBLA,HEROICA PUEBLA DE ZARAGOZA,21DJN1192F,QUETZALCOATL,126, DAÑO MENOR ,RECURSO ESTATAL,100,18.989627,-98.255449
225,IZÚCAR DE MATAMOROS,IZUCAR DE MATAMOROS,21ETV0586Z,MIGUEL ALEMAN VALDEZ,130, DAÑO MENOR ,RECURSO ESTATAL,100,18.605959,-98.476856
226,IZÚCAR DE MATAMOROS,AYUTLA (SAN FELIPE AYUTLA),21DPR2457U,MIGUEL HIDALGO,294, DAÑO MENOR ,RECURSO ESTATAL,100,18.543696,-98.507177
227,IZÚCAR DE MATAMOROS,SAN PEDRO CALANTLA,21DJN0872E,NO REELECCION,25, DAÑO MENOR ,RECURSO ESTATAL,100,18.596389,-98.395556
228,ATOYATEMPAN,ATOYATEMPAN,21EBH0157Z,LUIS DONALDO COLOSIO MURRIETA,171, DAÑO MENOR ,RECURSO ESTATAL,100,19.071024,-98.268411
229,TEPEXI DE RODRÍGUEZ,TEPEXI DE RODRIGUEZ,21EPR0435U,LICENCIADO BENITO JUAREZ,539, DAÑO PARCIAL ,RECURSO ESTATAL,100,18.58256,-97.925595
230,JOLALPAN,SANTIAGO MITEPEC,21EPR0171B,VENUSTIANO CARRANZA,110, DAÑO MAYOR ,ESCUELAS AL CIEN 2018,100,18.241389,-98.929722
231,JOLALPAN,TEUTLA,21DPR2480V,5 DE MAYO DE 1862,79, DAÑO MAYOR ,ESCUELAS AL CIEN 2018,100,18.29,-98.948333
232,PUEBLA,HEROICA PUEBLA DE ZARAGOZA,21DML0001R,CENTRO DE ATENCION MULTIPLE,81, DAÑO MENOR ,RECURSO ESTATAL,100,19.077704,-98.27189
233,JOLALPAN,HUACHINANTLA,21DPR2524B,IGNACIO ZARAGOZA,191, DAÑO MAYOR ,RECURSO ESTATAL,100,18.278333,-98.966389
234,JOLALPAN,HUACHINANTLA,21DST0082V,ESCUELA SECUNDARIA TECNICA NUM. 73,80, DAÑO MENOR ,RECURSO ESTATAL,100,18.278333,-98.966389
235,JOLALPAN,HUACHINANTLA,21EJN0288K,MIGUEL HIDALGO,60, DAÑO MENOR ,RECURSO ESTATAL,100,18.278333,-98.966389
236,JOLALPAN,JOLALPAN,21EJN0157S,DOCTOR GIL JIMENEZ AGUILAR,121, DAÑO MENOR ,RECURSO ESTATAL,100,18.320033,-98.845546
237,JOLALPAN,JOLALPAN,21EMS0020Y,EMILIANO ZAPATA,98, DAÑO MENOR ,RECURSO ESTATAL,100,18.636371,-98.634511
238,JOLALPAN,JOLALPAN,21EJN0867S,LUIS DONALDO COLOSIO MURRIETA,147, DAÑO MENOR ,RECURSO ESTATAL,100,18.320445,-98.844499
239,JOLALPAN,JOLALPAN,21EBH0475L,NIÑOS HEROES,32, DAÑO MENOR ,RECURSO ESTATAL,100,18.636944,-98.2475
240,JOLALPAN,SANTIAGO MITEPEC,21EBH1181F,BACHILLERATO DIGITAL NUM. 205,26, DAÑO MENOR ,RECURSO ESTATAL,100,18.31757,-98.83974
241,JOLALPAN,SANTIAGO MITEPEC,21EJN0542M,NIÑOS HEROES DE CHAPULTEPEC,31, DAÑO MENOR ,RECURSO ESTATAL,100,18.241389,-98.929722
242,SANTA INÉS AHUATEMPAN,SANTA INES AHUATEMPAN,21DPB0485B,EMILIANO ZAPATA,65, DAÑO MENOR ,RECURSO ESTATAL,100,18.408886,-98.014434
243,SANTA INÉS AHUATEMPAN,SANTA INES AHUATEMPAN,21EBH0257Y,VICENTE GUERRERO,182, DAÑO MENOR ,RECURSO ESTATAL,100,18.844961,-97.467288
244,ZACAPALA,SAN MATEO MIMIAPAN,21ETV0539O,MARIANO JIMENEZ,21, DAÑO MENOR ,RECURSO ESTATAL,100,18.524444,-98.1575
245,PUEBLA,HEROICA PUEBLA DE ZARAGOZA,21DPR1666T,BENEMERITO DE LAS AMERICAS,169, DAÑO MENOR ,RECURSO ESTATAL,100,19.054876,-98.19863
246,SAN JERÓNIMO XAYACATLÁN,GABINO BARREDA,21DPR0298I,MORELOS,34, DAÑO MENOR ,RECURSO ESTATAL,100,18.168056,-97.955833
247,SAN JERÓNIMO XAYACATLÁN,SAN JERONIMO XAYACATLAN,21TAI0691T,IGNACIO ZARAGOZA,0, DAÑO MENOR ,RECURSO ESTATAL,100,18.222433,-97.910644
248,SAN JERÓNIMO XAYACATLÁN,SAN JERONIMO XAYACATLAN,21TAI0623W,PROFESOR RODOLFO MENDIVIL PEREZ,0, DAÑO MENOR ,RECURSO ESTATAL,100,18.222433,-97.910644
249,SANTA INÉS AHUATEMPAN,SANTA INES AHUATEMPAN,21DCC0434Q,CARMEN SERDAN,150, DAÑO MENOR ,RECURSO ESTATAL,100,18.413211,-98.017361
250,SANTA INÉS AHUATEMPAN,SANTA INES AHUATEMPAN,21DST0030P,TECNICA 27 PROGRESA,229, DAÑO MENOR ,RECURSO ESTATAL,100,18.413602,-98.018552
251,SANTA INÉS AHUATEMPAN,TIERRA NUEVA,21DCC1000K,LAZARO CARDENAS,13, DAÑO MENOR ,RECURSO ESTATAL,100,18.396111,-98.072222
252,SANTA INÉS AHUATEMPAN,TIERRA NUEVA,21DAI0003X,UNA LUZ EN LA MONTAÑA,34, DAÑO MENOR ,RECURSO ESTATAL,100,18.396111,-98.072222
253,PUEBLA,HEROICA PUEBLA DE ZARAGOZA,21EBH0104U,PROFESOR  ENRIQUE MARTINEZ MARQUEZ,1144, DAÑO MENOR ,RECURSO ESTATAL,100,18.837613,-97.822233
254,TIANGUISMANALCO,SAN FRANCISCO BUENAVISTA,21DPR1537Z,VICENTE GUERRERO,79, DAÑO MENOR ,RECURSO ESTATAL,100,18.961944,-98.423333
255,TIANGUISMANALCO,SAN MARTIN TLAPALA,21ETV0863L,ALFONSO REYES,64, DAÑO MENOR ,RECURSO ESTATAL,100,19.028889,-97.789167
256,TIANGUISMANALCO,SAN PEDRO ATLIXCO,21DJN0366Z,TONATIUH,61, DAÑO MENOR ,RECURSO ESTATAL,100,18.980556,-98.476944
257,TIANGUISMANALCO,TIANGUISMANALCO,21DTV0227N,NIÑOS HEROES,25, DAÑO MENOR ,RECURSO ESTATAL,100,18.961944,-98.423333
258,TOCHIMILCO,LA MAGDALENA YANCUITLALPAN,21DPR0700C,VICENTE GUERRERO,235, DAÑO MENOR ,RECURSO ESTATAL,100,18.909476,-98.589412
259,TOCHIMILCO,TOCHIMILCO,21EBH0676I,CUAUHTEMOC,118, DAÑO MENOR ,RECURSO ESTATAL,100,18.920278,-97.2525
260,TOCHIMILCO,SAN FRANCISCO HUILANGO,21ETV0530X,JUAN RUIZ DE ALARCON,55, DAÑO MENOR ,RECURSO ESTATAL,100,18.842778,-98.583611
261,TOCHIMILCO,SAN MARTIN ZACATEMPA,21EBH1227K,BACHILLERATO DIGITAL NUM.251,29, DAÑO MENOR ,RECURSO ESTATAL,100,19.946389,-97.499722
262,HUAQUECHULA,HUAQUECHULA,21DTV0473X,JUAN ESCUTIA,19, DAÑO MENOR ,RECURSO ESTATAL,100,18.695,-98.596389
263,HUAQUECHULA,HUAQUECHULA,21EPR0134Y,MIGUEL HIDALGO,395, DAÑO MENOR ,RECURSO ESTATAL,100,18.770379,-98.546902
264,HUAQUECHULA,HUAQUECHULA,21DTV0237U,PLAN DE AYALA,22, DAÑO MENOR ,RECURSO ESTATAL,100,18.691667,-98.603611
265,HUAQUECHULA,HUAQUECHULA,21EBH0125G,QUETZALCOATL,327, DAÑO MENOR ,RECURSO ESTATAL,100,19.038236,-98.19344
266,HUATLATLAUCA,COPALCOTITLA,21DCC0532R,LAZARO CARDENAS,12, DAÑO MENOR ,RECURSO ESTATAL,100,18.695278,-98.011944
267,IZÚCAR DE MATAMOROS,LA GALARZA,21DTV0119F,OTILIO MONTAÑO,197, DAÑO MENOR ,RECURSO ESTATAL,100,18.675875,-98.447777
268,IZÚCAR DE MATAMOROS,IZUCAR DE MATAMOROS,21DPR2503P,PROFESOR  CELERINO CANO,191, DAÑO MENOR ,RECURSO ESTATAL,100,18.608178,-98.458357
269,SAN ANDRÉS CHOLULA,CACALOTEPEC,21ETV0133Y,JESUS GONZALEZ ORTEGA,358, DAÑO MENOR ,RECURSO ESTATAL,100,19.051111,-98.299722
270,SAN ANDRÉS CHOLULA,SAN ANDRES CHOLULA,21DST0035K,ESCUELA SECUNDARIA TECNICA NUM. 32,854, DAÑO MENOR ,RECURSO ESTATAL,100,19.051076,-98.30459
271,TULCINGO,TULCINGO DE VALLE,21DML0036G,BRAULIO ALONSO MORENO,45, DAÑO MENOR ,RECURSO ESTATAL,100,18.222123,-98.043985
272,CALTEPEC,CALTEPEC,21KJN0598Z,PREESCOLAR COMUNITARIO MESTIZO SAN SIMON TLACUILOTEPEC,5, DAÑO PARCIAL ,OTROS RECURSOS,100,18.044477,-97.494008
273,IXCAQUIXTLA,SAN JUAN IXCAQUIXTLA,21EBH0842Q,QUETZALCOATL,95, DAÑO MENOR ,RECURSO ESTATAL,100,18.432986,-97.120908
274,IXCAQUIXTLA,BARRIO DE DOLORES,21DPR2590A,EMILIANO ZAPATA,53, DAÑO MENOR ,RECURSO ESTATAL,100,18.490556,-97.826111
275,IXCAQUIXTLA,SAN JUAN IXCAQUIXTLA,21DJN0086P,ROSAURA ZAPATA,265, DAÑO MENOR ,RECURSO ESTATAL,100,18.461594,-97.83142
276,JUAN N. MÉNDEZ,ATENAYUCA,21ETV0185D,PABLO CASALS,87, DAÑO MENOR ,RECURSO ESTATAL,100,18.543333,-97.771389
277,JUAN N. MÉNDEZ,GUADALUPE VICTORIA,21ETV0766J,LUIS DONALDO COLOSIO MURRIETA,39, DAÑO MENOR ,RECURSO ESTATAL,100,19.195,-98.415278
278,JUAN N. MÉNDEZ,GUADALUPE VICTORIA,21DCC0204Y,VICENTE SUAREZ,58, DAÑO MENOR ,RECURSO ESTATAL,100,18.535833,-97.845833
279,JUAN N. MÉNDEZ,MAGDALENA ALQUIZAPAN,21DPR2528Y,MIGUEL HIDALGO,143, DAÑO MENOR ,RECURSO ESTATAL,100,18.480556,-97.759722
280,MOLCAXAC,MOLCAXAC,21DES0099C,MARIANO ESCOBEDO,96, DAÑO MENOR ,RECURSO ESTATAL,100,18.738333,-97.911111
281,MOLCAXAC,SAN ANDRES MIMIAHUAPAN,21ETV0189Z,CARLOS DE SIGUENZA Y GONGORA,39, DAÑO MENOR ,RECURSO ESTATAL,100,18.686667,-97.886389
282,MOLCAXAC,SAN JOSE DE GRACIA,21ETV0190P,ALEJANDRO FLEMING,90, DAÑO MENOR ,RECURSO ESTATAL,100,18.643333,-97.847222
283,MOLCAXAC,SAN JOSE DE GRACIA,21DJN0438B,EL NUEVO AMANECER,64, DAÑO MENOR ,RECURSO ESTATAL,100,18.643333,-97.847222
284,MOLCAXAC,SAN LUIS TEHUIZOTLA,21DJN0875B,ESTADO DE VERACRUZ,47, DAÑO MENOR ,RECURSO ESTATAL,100,18.676667,-97.858611
285,SAN JUAN ATZOMPA,SAN JUAN ATZOMPA,21DCC0105Y,MIGUEL HIDALGO,58, DAÑO MENOR ,RECURSO ESTATAL,100,18.746944,-98.023333
286,SAN PEDRO YELOIXTLAHUACA,SAN ISIDRO LABRADOR,21DCC0196F,MUCIO BRAVO,29, DAÑO MENOR ,RECURSO ESTATAL,100,18.105833,-98.070833
287,SAN PEDRO YELOIXTLAHUACA,SAN PEDRO YELOIXTLAHUACA,21DST0054Z,ESCUELA SECUNDARIA TECNICA NUM. 49,172, DAÑO MENOR ,RECURSO ESTATAL,100,18.116944,-98.077222
288,SAN ANDRÉS CHOLULA,SAN LUIS TEHUILOYOCAN,21DPR0283G,CRISTOBAL COLON,488, DAÑO MENOR ,RECURSO ESTATAL,100,19.039117,-98.339365
289,SAN JERÓNIMO XAYACATLÁN,SECCION CAÑADA SANDIA,21DPB0483D,TIERRA Y LIBERTAD,14, DAÑO MENOR ,RECURSO ESTATAL,100,18.139167,-97.9775
290,PUEBLA,HEROICA PUEBLA DE ZARAGOZA,21ETV0535S,JOSE MARIA MALDONADO,212, DAÑO MENOR ,RECURSO ESTATAL,100,19.10724,-98.214774
291,SAN MARTÍN TOTOLTEPEC,SAN MARTIN TOTOLTEPEC,21DJN0380S,FRANCISCO VILLA,54, DAÑO MENOR ,RECURSO ESTATAL,100,18.651389,-98.346111
292,SAN MARTÍN TOTOLTEPEC,SAN MARTIN TOTOLTEPEC,21ETV0411J,JOSE MARIA CHICO LINARES,57, DAÑO MENOR ,RECURSO ESTATAL,100,18.651389,-98.346111
293,SANTA ISABEL CHOLULA,SANTA ISABEL CHOLULA,21EJN0278D,NUEVO AMANECER,155, DAÑO MENOR ,RECURSO ESTATAL,100,18.996412,-98.379565
294,HUEJOTZINGO,SANTA ANA XALMIMILULCO,21DES0078Q,GABRIELA MISTRAL,806, DAÑO MENOR ,RECURSO ESTATAL,100,19.206668,-98.383211
295,TEHUITZINGO,LA NORIA HIDALGO,21DPR0441F,ENRIQUE G. LEON URIBE,94, DAÑO PARCIAL ,RECURSO ESTATAL,100,18.319167,-98.193611
296,TEHUITZINGO,TEHUITZINGO,21DPR0437T,CUAUHTEMOC,282, DAÑO MAYOR ,RECURSO ESTATAL,100,18.330731,-98.276049
297,TIANGUISMANALCO,SAN PEDRO ATLIXCO,21ETV0163S,MANUEL JOSE OTOHON,39, DAÑO MENOR ,RECURSO ESTATAL,100,18.980556,-98.476944
298,JUAN C. BONILLA,CUANALA,21EBH0112C,ALFONSO PRUNEDA,305, DAÑO MENOR ,RECURSO ESTATAL,100,18.907718,-98.434117
299,JUAN C. BONILLA,CUANALA,21DJN1078N,JOSE ANGELES,167, DAÑO MENOR ,RECURSO ESTATAL,100,19.103241,-98.349082
300,TIANGUISMANALCO,SAN PEDRO ATLIXCO,21DPR1535A,AQUILES SERDAN,171, DAÑO PARCIAL ,RECURSO ESTATAL,100,18.980556,-98.476944
301,TIANGUISMANALCO,SAN BALTAZAR ATLIMEYAYA,21DJN1175P,AMADO NERVO,38, DAÑO MENOR ,RECURSO ESTATAL,100,18.986944,-98.481111
302,NEALTICAN,SAN BUENAVENTURA NEALTICAN,21DJN0222C,RICARDO CASTRO,320, DAÑO MENOR ,RECURSO ESTATAL,100,19.054133,-98.430723
303,TLAPANALÁ,TLAPANALA,21EBH0986M,BACHILLERATO DIGITAL NUM. 32,35, DAÑO MENOR ,RECURSO ESTATAL,100,18.839722,-98.299722
304,TOCHIMILCO,TOCHIMILCO,21DCC1082K,XOCHITL,60, DAÑO MENOR ,RECURSO ESTATAL,100,18.877704,-98.707945
305,TOCHIMILCO,SAN ANTONIO ALPANOCAN,21DPR0697F,IGNACIO ZARAGOZA,316, DAÑO MAYOR ,RECURSO ESTATAL,100,18.876511,-98.711511
306,ACATLÁN,LA NORMAL,21DDI0005S,CENDI NUM. 5,52, DAÑO MENOR ,RECURSO ESTATAL,100,18.218277,-98.043271
307,ACATLÁN,ACATLAN DE OSORIO,21DJN2284C,NIÑO ARTILLERO,138, DAÑO MENOR ,OTROS RECURSOS,100,18.205755,-98.046686
308,ACATLÁN,AMATITLAN DE AZUETA,21DJN0067A,JOSE AZUETA,96, DAÑO MENOR ,RECURSO ESTATAL,100,18.176389,-98.078333
309,ACATLÁN,LA HUERTA,21EBH1141E,BACHILLERATO DIGITAL NUM. 164,56, DAÑO MENOR ,RECURSO ESTATAL,100,18.488572,-96.853763
310,ACATLÁN,PEÑA COLORADA,21DTV0283F,AGUSTIN DE ITURBIDE,27, DAÑO MENOR ,RECURSO ESTATAL,100,18.029167,-98.291944
311,ACATLÁN,SAN VICENTE BOQUERON,21EJN0083R,ANGEL ISLAS QUIROZ,51, DAÑO MENOR ,RECURSO ESTATAL,100,18.280756,-98.063925
312,CHIAUTLA,CIUDAD DE CHIAUTLA DE TAPIA,21EBH0989J,BACHILLERATO DIGITAL NUM. 34,51, DAÑO MENOR ,RECURSO ESTATAL,100,18.699444,-97.697778
313,CHIAUTLA,CIUDAD DE CHIAUTLA DE TAPIA,21EES0100A,C.E. GENERAL EMILIANO ZAPATA,157, DAÑO MENOR ,RECURSO ESTATAL,100,18.302689,-98.610561
314,CHIETLA,CHIETLA,21DPR2087S,BENITO JUAREZ,191, DAÑO MAYOR ,ESCUELAS AL CIEN 2018,100,18.514128,-98.572386
315,SAN PEDRO CHOLULA,CHOLULA DE RIVADAVIA,21DCT0001T,CENTRO DE ESTUDIOS TECNOLOGICOS INDUSTRIALES Y DE SERVICIOS NUM. 67,888, DAÑO MENOR ,RECURSO ESTATAL,100,18.986703,-97.454035
316,SAN PEDRO CHOLULA,CHOLULA DE RIVADAVIA,21DES0118A,JOSE MARIA LAFRAGUA,895, DAÑO MENOR ,RECURSO ESTATAL,100,19.067847,-98.303396
317,SAN PEDRO CHOLULA,SANTA MARIA ACUEXCOMAC,21DPR0064U,GENERAL VICENTE GUERRERO,201, DAÑO MENOR ,RECURSO ESTATAL,100,19.036967,-98.384399
318,SANTA INÉS AHUATEMPAN,TIERRA NUEVA,21ETV0929D,QUETZALCOATL,32, DAÑO MENOR ,RECURSO ESTATAL,100,18.362008,-96.870498
319,TECOMATLÁN,OLOMATLAN,21DPR3015F,MIGUEL HIDALGO,58, DAÑO MENOR ,RECURSO ESTATAL,100,17.946111,-98.269722
320,TECOMATLÁN,TECOMATLAN,21DPR1615M,GENERAL LAZARO CARDENAS,79, DAÑO MENOR ,RECURSO ESTATAL,100,18.112714,-98.313466
321,TECOMATLÁN,TEZOQUIPAN,21DJN2208X,GABRIELA MISTRAL,9, DAÑO MENOR ,RECURSO ESTATAL,100,18.083611,-98.326667
322,TEHUITZINGO,SAN FRANCISCO DE ASIS,21DJN2066P,JUSTO SIERRA MENDEZ,45, DAÑO MENOR ,RECURSO ESTATAL,100,18.436304,-98.282154
323,TEHUITZINGO,TEHUITZINGO,21DJN0146N,ANTONIO CASSO,115, DAÑO MENOR ,RECURSO ESTATAL,100,18.329461,-98.275738
324,TEHUITZINGO,TEHUITZINGO,21DJN1195C,ESCUDO NACIONAL,49, DAÑO MENOR ,RECURSO ESTATAL,100,18.335432,-98.273196
325,TEHUITZINGO,TEHUITZINGO TERCERA SECCION (HUAMUCHILERA),21DST0114X,ESCUELA SECUNDARIA TECNICA NUM. 106,114, DAÑO MENOR ,RECURSO ESTATAL,100,18.326854,-98.257204
326,ATOYATEMPAN,ATOYATEMPAN,21DES0061Q,LUIS BERMUDEZ GALICIA,382, DAÑO MENOR ,RECURSO ESTATAL,100,18.823462,-97.906079
327,TULCINGO,TULCINGO DE VALLE,21DPR0635T,NIÑOS HEROES,279, DAÑO MENOR ,RECURSO ESTATAL,100,18.05115,-98.445342
328,CHIAUTZINGO,SAN ANTONIO TLATENCO,21DJN0467X,J.N. TENOCHTITLAN,71, DAÑO MENOR ,RECURSO ESTATAL,100,19.174507,-98.494407
329,TULCINGO,XIXINGO DE LOS REYES,21DPR0714F,GENERAL IGNACIO ZARAGOZA,149, DAÑO MENOR ,RECURSO ESTATAL,100,17.894167,-98.405833
330,XAYACATLÁN DE BRAVO,XAYACATLAN DE BRAVO,21DPB0489Y,EULOGIO BALTAZAR,99, DAÑO MENOR ,RECURSO ESTATAL,100,18.236667,-97.975833
331,DOMINGO ARENAS,DOMINGO ARENAS,21EPR0116I,CUAUHTEMOC,791, DAÑO MENOR ,RECURSO ESTATAL,100,19.144165,-98.456772
332,DOMINGO ARENAS,CHAHUAC,21DJN2252K,NOCONETZIN,53, DAÑO MENOR ,RECURSO ESTATAL,100,19.128685,-98.424104
333,DOMINGO ARENAS,DOMINGO ARENAS,21EBH0392C,EMILIANO ZAPATA,294, DAÑO MENOR ,RECURSO ESTATAL,100,19.525327,-97.617198
334,XAYACATLÁN DE BRAVO,XAYACATLAN DE BRAVO,21DCC0425I,ROSAURA ZAPATA,34, DAÑO MENOR ,RECURSO ESTATAL,100,18.236667,-97.975833
335,HUEHUETLÁN EL GRANDE,SAN MIGUEL ATLAPULCO,21EJN0096V,PAPALOCALLI,93, DAÑO MENOR ,RECURSO ESTATAL,100,18.795092,-98.194373
336,CHIETLA,CHIETLA,21DTA0002U,CENTRO DE BACHILLERATO TECNOLOGOCIO AGROPECUARIO NUM. 185,351, DAÑO MAYOR ,ESCUELAS AL CIEN 2018,95,19.884605,-97.590013
337,CHIETLA,CHIETLA,21EPR0252M,LICENCIADO BENITO JUAREZ,318, DAÑO MAYOR ,ESCUELAS AL CIEN 2018,100,18.521071,-98.583414
338,CHIETLA,CHIETLA,21DPT0002W,PLANTEL CONALEP 093. ATENCINGO,464, DAÑO PARCIAL ,ESCUELAS AL CIEN 2018,99,19.069104,-98.15718
339,CHIETLA,CHIETLA,21EJN0724V,PRISCO SANCHEZ,59, DAÑO PARCIAL ,ESCUELAS AL CIEN 2018,100,18.511838,-98.601071
340,CHIETLA,ESCAPE DE LAGUNILLAS,21DES0030X,AQUILES SERDAN,149, DAÑO PARCIAL ,ESCUELAS AL CIEN 2018,100,18.484798,-98.659732
341,CHIETLA,ESCAPE DE LAGUNILLAS,21DPR2094B,LAZARO CARDENAS,307, DAÑO MAYOR ,ESCUELAS AL CIEN 2018,100,18.482379,-98.661439
342,CHIETLA,SAN ANTONIO COAYUCA,21EBH1137S,BACHILLERATO GENERAL,46, DAÑO PARCIAL ,ESCUELAS AL CIEN 2018,100,18.965241,-97.706913
343,CHIETLA,SAN JOSE CHIETLA,21EPR0700B,GENERAL EMILIANO ZAPATA,34, DAÑO PARCIAL ,ESCUELAS AL CIEN 2018,100,18.501116,-98.698454
344,CHIETLA,DON ROQUE,21ETV0566L,PASTOR ROUAIX,20, DAÑO PARCIAL ,ESCUELAS AL CIEN 2018,100,18.479167,-98.6275
345,CHIETLA,ESCAPE DE LAGUNILLAS,21DJN0036H,LEONARDO BRAVO,137, DAÑO MENOR ,OTROS RECURSOS,0,18.483076,-98.664126
346,CHIETLA,SAN JOSÉ LOS LAURELES,21KJN1650L,PREESCOLAR COMUNITARIO RURAL SAN JOSE LOS LAURELES,16,DAÑO MENOR,PROGRAMA DE LA REFORMA EDUCATIVA,100,18.3016,-98.4151
347,CHIETLA,SAN LUCAS HUAJOTITLÁN,21KPR0273J,PRIMARIA COMUNITARIA RURAL SAN LUCAS HUEJOTITLAN,2,DAÑO MENOR,PROGRAMA DE LA REFORMA EDUCATIVA,100,18.435463,-98.540817
348,CHIETLA,LA SOLEDAD,21KJN0029H,PREESCOLAR COMUNITARIO RURAL LA SOLEDAD,8,DAÑO MENOR,PROGRAMA DE LA REFORMA EDUCATIVA,100,18.462222,-98.615278
349,CHIETLA,CHIETLA,21DES0031W,MIGUEL CASTULO DE ALATRISTE,329, DAÑO MENOR ,RECURSO ESTATAL,100,18.523256,-98.584534
350,SAN PEDRO CHOLULA,CHOLULA DE RIVADAVIA,21DJN1055C,ITZCOATL,124, DAÑO MENOR ,RECURSO ESTATAL,100,19.083536,-98.316031
351,SANTA ISABEL CHOLULA,SANTA ISABEL CHOLULA,21ETV0158G,SANTOS DEGOLLADO,114, DAÑO PARCIAL ,RECURSO ESTATAL,100,18.996977,-98.378339
352,SANTA ISABEL CHOLULA,SAN PABLO AHUATEMPA,21DTV0133Z,ALVARO GALVEZ Y FUENTES,95, DAÑO MENOR ,RECURSO ESTATAL,100,18.981389,-98.358889
353,SANTA ISABEL CHOLULA,SANTA ANA ACOZAUTLA,21DPR1531E,EMILIANO ZAPATA,400, DAÑO MENOR ,RECURSO ESTATAL,100,18.955556,-98.383056
354,SANTA ISABEL CHOLULA,SANTA ANA ACOZAUTLA,21DTV0250O,JOAQUIN REA,56, DAÑO MENOR ,RECURSO ESTATAL,100,18.955556,-98.383056
355,SANTA ISABEL CHOLULA,SAN MARTIN TLAMAPA,21DPR0368N,MIGUEL NEGRETE,239, DAÑO MAYOR ,DONACIÓN,100,18.9775,-98.396944
356,SANTA ISABEL CHOLULA,SANTA ISABEL CHOLULA,21EPR0401D,JOSE MARIA MORELOS,282, DAÑO MAYOR ,DONACIÓN,100,18.997087,-98.37951
357,CUAUTLANCINGO,SANCTORUM,21DPR2021J,CADETE VIRGILIO URIBE,531, DAÑO PARCIAL ,ESCUELAS AL CIEN 2018,100,19.095876,-98.248764
358,OCOYUCAN,SANTA CLARA OCOYUCAN,21DJN0596R,FRAY JULIAN GARCES,245, DAÑO PARCIAL ,ESCUELAS AL CIEN 2018,100,18.982661,-98.309139
359,ACATLÁN,ACATLAN DE OSORIO,21EBH0251D,CARLOS GASPAR NAVARRO,44, DAÑO PARCIAL ,ESCUELAS AL CIEN 2018,100,18.643333,-98.691111
360,ACATLÁN,ACATLAN DE OSORIO,21ETV0341E,HERMANOS SERDAN,51, DAÑO PARCIAL ,ESCUELAS AL CIEN 2018,100,18.257222,-98.012222
361,CHIETLA,ESCAPE DE LAGUNILLAS,21DTV0062V,HEROES DE CHAPULTEPEC,170, DAÑO MENOR ,RECURSO ESTATAL,100,18.482145,-98.664009
362,CHIETLA,SAN NICOLAS TENEXCALCO,21EBH1159D,BACHILLERATO DIGITAL NUM. 181,26, DAÑO MENOR ,RECURSO ESTATAL,100,19.836831,-98.214024
363,PUEBLA,GUADALUPE TLATELPA,21EPR1569Q,JOSE GUADALUPE POSADA,520, DAÑO PARCIAL ,ESCUELAS AL CIEN 2018,100,19.035674,-98.198952
364,PUEBLA,HEROICA PUEBLA DE ZARAGOZA,21DST0062H,ESCUELA SECUNDARIA TECNICA NUM. 58,664, DAÑO PARCIAL ,ESCUELAS AL CIEN 2018,100,19.001737,-98.230768
365,PUEBLA,HEROICA PUEBLA DE ZARAGOZA,21EPR0263S,CAMARA JUNIOR,500, DAÑO PARCIAL ,ESCUELAS AL CIEN 2018,100,19.070261,-98.212942
366,ACATLÁN,LA PALMA,21DPR0982A,BENITO JUAREZ,222, DAÑO PARCIAL ,ESCUELAS AL CIEN 2018,100,18.193548,-98.051454
367,PUEBLA,HEROICA PUEBLA DE ZARAGOZA,21DST0110A,ESCUELA SECUNDARIA TECNICA NUM. 102,512, DAÑO PARCIAL ,ESCUELAS AL CIEN 2018,100,18.979449,-98.218467
368,CUAUTLANCINGO,SAN LORENZO ALMECATLA,21EPR1584I,TIERRA Y LIBERTAD,534, DAÑO PARCIAL ,ESCUELAS AL CIEN 2018,100,19.142527,-98.235337
369,JOLALPAN,XOCHITEPEC,21EJN1129C,AMEYALIC,43, DAÑO MENOR ,RECURSO ESTATAL,100,18.228333,-98.876111
370,CHIETLA,ATENCINGO,21DST0038H,ESCUELA SECUNDARIA TECNICA NUM. 6,331, DAÑO MENOR ,RECURSO ESTATAL,100,18.501182,-98.619913
371,PUEBLA,HEROICA PUEBLA DE ZARAGOZA,21EBH0265G,CARLOS CAMACHO ESPIRITU,309, DAÑO PARCIAL ,ESCUELAS AL CIEN 2018,100,19.086155,-98.096734
372,PUEBLA,BOSQUES DE AMALUCAN SEGUNDA SECCION,21DPR1996K,GENERAL IGNACIO ZARAGOZA,574, DAÑO PARCIAL ,ESCUELAS AL CIEN 2018,100,19.047925,-98.146981
373,PETLALCINGO,PETLALCINGO,21DPR0180K,JUSTO SIERRA,69, DAÑO PARCIAL ,ESCUELAS AL CIEN 2018,100,18.084176,-97.923845
374,PUEBLA,AGUA SANTA,21EJN0558N,ERANDI,573, DAÑO MENOR ,ESCUELAS AL CIEN 2018,100,18.986807,-98.243822
375,PUEBLA,HEROICA PUEBLA DE ZARAGOZA,21EPR0148A,CARMEN MILLAN,223, DAÑO MENOR ,ESCUELAS AL CIEN 2018,100,19.043673,-98.220424
376,HUEHUETLÁN EL GRANDE,ANALCO,21DCC0330V,JOSEFA ORTIZ DE DOMINGUEZ,20, DAÑO MENOR ,ESCUELAS AL CIEN 2018,100,18.734237,-98.175461
377,PIAXTLA,PROGRESO,21DPR0189B,IGNACIO RAMIREZ,172, DAÑO MAYOR ,ESCUELAS AL CIEN 2018,100,18.036667,-98.310556
378,PIAXTLA,YETLA,21EPR0239S,BENITO JUAREZ,24, DAÑO MENOR ,ESCUELAS AL CIEN 2018,100,17.993056,-98.315278
379,PUEBLA,HEROICA PUEBLA DE ZARAGOZA,21EPR0183G,HEROES DE LA REFORMA,778, DAÑO MAYOR ,FONDEN CONTRAPARTE ESTATAL,100,19.044081,-98.208508
380,ATLIXCO,ATLIXCO,21DPR2274M,SIMON BOLIVAR,65, DAÑO MENOR ,RECURSO ESTATAL,100,18.87373,-98.454108
381,PUEBLA,HEROICA PUEBLA DE ZARAGOZA,21EPR0284E,MARIANO MATAMOROS,285, DAÑO MAYOR ,FONDEN FEDERAL,100,19.051069,-98.200042
382,ATLIXCO,ATLIXCO,21DST0144R,SECUNDARIA TECNICA NUM. 133,60, DAÑO MENOR ,OTROS RECURSOS,100,18.908889,-98.437778
383,PUEBLA,HEROICA PUEBLA DE ZARAGOZA,21EPR0335V,ENRIQUE CONRADO REBSAMEN,367, DAÑO MAYOR ,FONDEN CONTRAPARTE ESTATAL,100,19.050999,-98.199903
384,PUEBLA,HEROICA PUEBLA DE ZARAGOZA,21EPR0301E,JUAN N. MENDEZ,0, DAÑO MAYOR ,FONDEN CONTRAPARTE ESTATAL,100,19.046214,-98.206116
385,ACAJETE,SANTA ISABEL TEPETZALA,21ETV0258F,ANTONIO MACHADO Y RUIZ,468, DAÑO MENOR ,SEGUNDA ETAPA A,100,19.123911,-97.938454
386,SAN PEDRO CHOLULA,CHOLULA DE RIVADAVIA,21DPR1117P,GENERAL LAZARO CARDENAS,336, DAÑO MAYOR ,FONDEN FEDERAL,0,19.061014,-98.302171
387,TEHUITZINGO,SANTA CRUZ TEJALPA,21ETV0455G,ENRIQUE GRANADOS,35, DAÑO PARCIAL ,ESCUELAS AL CIEN 2018,100,18.360833,-98.360278
388,AHUEHUETITLA,EL PEÑON (SAN VICENTE EL PEÑON),21DPR1602I,EMILIO CARRANZA,13, DAÑO MENOR ,ESCUELAS AL CIEN 2018,100,18.228611,-98.222222
389,TEHUITZINGO,TECOLUTLA,21DPR0449Y,MARIANO MATAMOROS,35, DAÑO PARCIAL ,ESCUELAS AL CIEN 2018,100,18.305833,-98.321111
390,SAN PABLO ANICANO,MIXQUITLIXCO,21EPR0390O,VENUSTIANO CARRANZA,69, DAÑO MENOR ,ESCUELAS AL CIEN 2018,100,18.1375,-98.082222
391,TEHUITZINGO,TEHUITZINGO,21DPR0991I,BENITO JUAREZ,184, DAÑO PARCIAL ,ESCUELAS AL CIEN 2018,100,18.334435,-98.268607
392,PUEBLA,HEROICA PUEBLA DE ZARAGOZA,21EPR0259F,CARMEN SERDAN,181, DAÑO MAYOR ,FONDEN FEDERAL,73,19.0449657,-98.2035453
393,PUEBLA,HEROICA PUEBLA DE ZARAGOZA,21ETV0694G,GENERAL IGNACIO ZARAGOZA,153, DAÑO MAYOR ,FONDEN CONTRAPARTE ESTATAL,100,19.040083,-98.169711
394,PUEBLA,HEROICA PUEBLA DE ZARAGOZA,21EPR0327M,GUSTAVO P MAHR,166, DAÑO MAYOR ,FONDEN CONTRAPARTE ESTATAL,100,19.051807,-98.194384
395,PUEBLA,HEROICA PUEBLA DE ZARAGOZA,21EPR0306Z,BENEMERITA JOSE MARIA LAFRAGUA,163, DAÑO MAYOR ,FONDEN FEDERAL,100,19.041638,-98.198087
396,TEHUITZINGO,TEHUITZINGO,21DPR0596H,HIMNO NACIONAL,179, DAÑO PARCIAL ,ESCUELAS AL CIEN 2018,100,18.334403,-98.274776
397,TEHUITZINGO,TEHUITZINGO,21DES0019A,IGNACIO MANUEL ALTAMIRANO,282, DAÑO PARCIAL ,ESCUELAS AL CIEN 2018,100,18.336366,-98.28131
398,EPATLÁN,SAN JUAN EPATLAN,21EBT0148M,CENTRO DE CAPACITACION Y DESARROLLO (CECADE) SAN JUAN EPATLAN,3, DAÑO MAYOR ,DONACIÓN,100,18.642669,-98.3735527
399,PUEBLA,HEROICA PUEBLA DE ZARAGOZA,21EPR0330Z,GABINO BARREDA,143, DAÑO MAYOR ,FONDEN CONTRAPARTE ESTATAL,100,19.041758,-98.202093
400,ATLIXCO,ATLIXCO,21DPR1018P,VICENTE SUAREZ,268, DAÑO MENOR ,RECURSO ESTATAL,100,18.917957,-98.419903
401,AMOZOC,AMOZOC DE MOTA,21EJN0056U,JOSE MARIA MORELOS,243, DAÑO PARCIAL ,OTROS RECURSOS,100,19.04499,-98.042492
402,CHIETLA,TZOMPAHUACAN,21EBH1157F,BACHILLERATO DIGITAL NUM. 180,35, DAÑO MENOR ,RECURSO ESTATAL,100,19.172778,-97.074167
403,ACATLÁN,SAN BERNARDO,21DPR2296Y,IGNACIO MANUEL ALTAMIRANO,112, DAÑO MENOR ,SEGUNDA ETAPA A,100,18.213333,-98.103611
404,TULCINGO,TULCINGO DE VALLE,21DPR0711I,BONIFACIO VALLE,473, DAÑO PARCIAL ,ESCUELAS AL CIEN 2018,100,18.043889,-98.439504
405,ACATLÁN,ACATLAN DE OSORIO,21KJN0431S,PREESCOLAR COMUNITARIO RURAL AMATE REDONDO,13, DAÑO MENOR ,SEGUNDA ETAPA A,100,17.927168,-98.210537
406,TULCINGO,ZARAGOZA DE LA LUZ,21DTV0414H,IGNACIO ZARAGOZA,30, DAÑO PARCIAL ,ESCUELAS AL CIEN 2018,100,18.051667,-98.373056
407,XAYACATLÁN DE BRAVO,TERCERA SECCION DE XAYACATLAN DE BRAVO,21DES0086Z,JUAN DOMINGUEZ MARTINEZ,139, DAÑO PARCIAL ,ESCUELAS AL CIEN 2018,100,18.236667,-97.975833
408,ACATLÁN,ACATLAN DE OSORIO,21KTV0052Y,SECUNDARIA COMUNITARIA RURAL ZIMATLAN BUENA VISTA,23, DAÑO MENOR ,SEGUNDA ETAPA A,100,20.199726,-97.917776
409,TECALI DE HERRERA,TECALI DE HERRERA,21EBH0976F,BACHILLERATO DIGITAL NUM. 23,57, DAÑO MENOR ,TERCERA ETAPA,0,18.8675,-97.983611
410,ACATLÁN,ZIMATLAN BUENA VISTA,21ETK0086Y,TELEBACHILLERATO COMUNITARIO NUM. 86,30, DAÑO MENOR ,SEGUNDA ETAPA A,0,17.93765,-98.213443
411,ATLIXCO,ATLIXCO,21DPR2283U,BELISARIO DOMINGUEZ,555, DAÑO MAYOR ,ESCUELAS AL CIEN 2018,100,18.934705,-98.472089
412,ACATLÁN,EL MAGUEY,21KJN1575V,PREESCOLAR COMUNITARIO RURAL EL MAGUEY,8, DAÑO MENOR ,SEGUNDA ETAPA A,100,18.241142,-98.096544
413,ACATLÁN,ACATLAN DE OSORIO,21DPR2300U,MIGUEL HIDALGO,164, DAÑO MENOR ,SEGUNDA ETAPA A,100,18.279381,-98.055971
414,TECOMATLÁN,TECOMATLAN,21DPR2852V,LEONA VICARIO,28, DAÑO MENOR ,SEGUNDA ETAPA A,100,18.068056,-98.309444
415,ATLIXCO,ATLIXCO,21DPR2244S,CENTRO OBRERO FEDERAL,504, DAÑO MAYOR ,FONDEN FEDERAL,100,18.909299,-98.4338
416,NEALTICAN,SAN BUENAVENTURA NEALTICAN,21ETV0115I,GREGORIO DE GANTE,123, DAÑO MENOR ,ESCUELAS AL CIEN 2018,100,19.063772,-98.425636
417,ATLIXCO,ATLIXCO,21EPR0038V,ANTONIO GARFIAS,520, DAÑO PARCIAL ,OTROS RECURSOS,100,18.907701,-98.434774
418,JOLALPAN,XOCHITEPEC,21DTV0263S,BENITO JUAREZ GARCIA,63, DAÑO MENOR ,RECURSO ESTATAL,100,18.228333,-98.876111
419,ACATLÁN,ACATLAN DE OSORIO,21DPR2302S,MIGUEL HIDALGO,121, DAÑO MENOR ,SEGUNDA ETAPA A,100,18.183611,-98.046111
420,ACATLÁN,AMATITLAN DE AZUETA,21ETV0337S,RICARDO WAGNER,49, DAÑO MENOR ,SEGUNDA ETAPA A,100,18.176389,-98.078333
421,TEHUITZINGO,TEHUITZINGO,21ETV0451K,FELIPE XICOTENCATL,54, DAÑO MENOR ,SEGUNDA ETAPA A,100,18.319167,-98.193611
422,ACATLÁN,GARZONES (SANTA GERTRUDIS),21DTV0305A,UNIDAD NACIONAL,37, DAÑO MENOR ,SEGUNDA ETAPA A,100,18.278333,-98.03
423,ATLIXCO,SAN JUAN DE LOS LAURELES,21DJN1035P,ESTADO DE GUANAJUATO,49, DAÑO MENOR ,SEGUNDA ETAPA A,100,18.866259,-98.479422
424,TIANGUISMANALCO,SAN FRANCISCO BUENAVISTA,21DCC0028J,EMPERADOR CUAUTHEMOC,26, DAÑO MENOR ,TERCERA ETAPA,90,18.961944,-98.423333
425,CHIETLA,ATENCINGO,21DJN0006N,NICOLAS BRAVO,209, DAÑO MENOR ,RECURSO ESTATAL,100,18.501812,-98.620104
426,ATLIXCO,ATLIXCO,21EBH0111D,BACHILLERATO GENERAL OFICIAL ANTONIO GARFIAS,444, DAÑO MENOR ,SEGUNDA ETAPA A,100,19.102887,-98.160433
427,ATLIXCO,ATLIXCO,21DSN0003H,BENEMERITO DE LAS AMERICAS,137, DAÑO MENOR ,SEGUNDA ETAPA A,100,18.895612,-98.437246
428,ATLIXCO,ATLIXCO,21EPR0037W,ANTONIO SERRANO,208, DAÑO MAYOR ,ESCUELAS AL CIEN 2018,100,18.907746,-98.433345
429,ATLIXCO,ATLIXCO,21DPR2381V,FELIPE AYALA,237, DAÑO MENOR ,SEGUNDA ETAPA A,100,18.904389,-98.524627
430,ATLIXCO,ATLIXCO,21DPR2236J,FELIPE CARRILLO PUERTO,372, DAÑO MENOR ,SEGUNDA ETAPA A,100,18.911064,-98.440023
431,ATLIXCO,ATLIXCO,21EBH0292D,IGNACIO MANUEL ALTAMIRANO,135, DAÑO MENOR ,SEGUNDA ETAPA A,100,19.288338,-98.472743
432,AXUTLA,AXUTLA,21DPR2277J,GENERAL LAZARO CARDENAS,6, DAÑO MENOR ,TERCERA ETAPA,0,18.118333,-98.401944
433,ATLIXCO,ATLIXCO,21DPR0948U,IGNACIO RAMIREZ,296, DAÑO MENOR ,SEGUNDA ETAPA A,100,18.899237,-98.439823
434,JOLALPAN,JOLALPAN,21ETV0401C,GABRIEL LEYVA,166, DAÑO MENOR ,RECURSO ESTATAL,100,18.319192,-98.84056
435,ATLIXCO,ATLIXCO,21EBH0003W,IGNACIO RAMIREZ CALZADA,568, DAÑO MENOR ,SEGUNDA ETAPA A,100,18.995438,-97.448993
436,TEOPANTLÁN,SAN SEBASTIAN TENANGO,21KJN1424P,PREESCOLAR COMUNITARIO MESTIZO SAN SEBASTIAN TENANGO,7, DAÑO PARCIAL ,ESCUELAS AL CIEN 2018,100,18.663611,-98.173333
437,ATLIXCO,ATLIXCO,21DCT0046P,CENTRO DE BACHILLERATO TECNOLOGICO INDUSTRIAL Y DE SERVICIOS NUM. 16,1253, DAÑO MAYOR ,ESCUELAS AL CIEN 2018,100,19.224115,-97.812285
438,TEOTLALCO,CONTLA,21KJN0196E,PREESCOLAR COMUNITARIO CONTLA,4, DAÑO PARCIAL ,ESCUELAS AL CIEN 2018,100,18.514282,-98.809721
439,TULCINGO,ZARAGOZA DE LA LUZ,21ETK0005X,TELEBACHILLERATO COMUNITARIO NUM. 5,34, DAÑO MENOR ,RECURSO ESTATAL,100,18.539454,-98.010509
440,ATLIXCO,ATLIXCO,21DPR0173A,ISAAC OCHOTERENA,423, DAÑO MENOR ,SEGUNDA ETAPA A,100,18.891406,-98.446743
441,ATLIXCO,ATLIXCO,21DPR0949T,JOSE MARIA MORELOS,424, DAÑO MENOR ,SEGUNDA ETAPA A,100,18.917259,-98.429535
442,ATLIXCO,ATLIXCO,21EBH0552Z,JOSE VASCONCELOS,226, DAÑO MENOR ,SEGUNDA ETAPA A,100,18.485556,-98.6975
443,ATLIXCO,ATLIXCO,21DES0045Z,DR. GABINO BARREDA,1014, DAÑO MAYOR ,ESCUELAS AL CIEN 2018,100,18.921526,-98.425732
444,ATLIXCO,EL CARMEN,21DPR2270Q,VIRGINIO AYAQUICA,371, DAÑO MENOR ,RECURSO ESTATAL,100,18.888205,-98.413586
445,ATLIXCO,ATLIXCO,21DJN0917K,SEÑORA  JOSEFINA OCHOA OLMEDO,142, DAÑO PARCIAL ,ESCUELAS AL CIEN 2018,100,18.913717,-98.444324
446,ATLIXCO,ATLIXCO,21DJN2188Z,JUAN RULFO,21, DAÑO MENOR ,SEGUNDA ETAPA A,100,18.913878,-98.473102
447,PUEBLA,HEROICA PUEBLA DE ZARAGOZA,21DPR3427G,PROFESOR  JORGE MURAD MACLUF,385, DAÑO MENOR ,ESCUELAS AL CIEN 2018,100,19.063086,-98.14795
448,TIANGUISMANALCO,SAN BALTAZAR ATLIMEYAYA,21DPR1534B,BENITO JUAREZ,72, DAÑO MENOR ,ESCUELAS AL CIEN 2018,100,18.986944,-98.481111
449,ATLIXCO,SAN ISIDRO HUILOTEPEC,21DPR1541L,JOSE MARIA MORELOS,209, DAÑO PARCIAL ,ESCUELAS AL CIEN 2018,100,18.880833,-98.383056
450,ATLIXCO,ATLIXCO,21DTV0365P,LUIS DONALDO COLOSIO MURRIETA,50, DAÑO MENOR ,SEGUNDA ETAPA A,100,18.92171,-98.45064
451,ATLIXCO,ATLIXCO,21EJN0130L,MACUIXOCHITL,100, DAÑO MENOR ,SEGUNDA ETAPA A,100,18.915565,-98.422921
452,ATZITZIHUACÁN,ATZITZIHUACAN,21EPR0046D,BENITO JUAREZ,107, DAÑO PARCIAL ,ESCUELAS AL CIEN 2018,100,18.822452,-98.58085
453,ATZITZIHUACÁN,SAN JUAN AMECAC,21DPR2378H,BENITO JUAREZ,355, DAÑO PARCIAL ,ESCUELAS AL CIEN 2018,100,18.832731,-98.660489
454,ATLIXCO,ATLIXCO,21DPR2263G,MARTIRES DE LA ENSEÑANZA,414, DAÑO MENOR ,SEGUNDA ETAPA A,100,18.903506,-98.432555
455,ATZITZIHUACÁN,SAN PEDRO IXHUATEPEC,21DPR2286R,EMILIANO ZAPATA,81, DAÑO PARCIAL ,ESCUELAS AL CIEN 2018,100,18.795278,-98.636389
456,ATLIXCO,ATLIXCO,21DPR0946W,MIGUEL HIDALGO Y COSTILLA,478, DAÑO MENOR ,SEGUNDA ETAPA A,100,18.914403,-98.427388
457,ATLIXCO,ATLIXCO,21DPR0943Z,PLUTARCO ELIAS CALLES,616, DAÑO MENOR ,SEGUNDA ETAPA A,100,18.915991,-98.432338
458,JOLALPAN,JOLALPAN TERCERA SECCION,21EPR0172A,LICENCIADO BENITO JUAREZ,325, DAÑO PARCIAL ,RECURSO ESTATAL,100,18.323089,-98.845247
459,ATZITZIHUACÁN,SAN JUAN TEJUPA,21DPR2375K,FORTINO AYAQUICA,288, DAÑO PARCIAL ,ESCUELAS AL CIEN 2018,100,18.854987,-98.540449
460,JOLALPAN,JOLALPAN,21EJN0964U,AQUILES SERDAN,60, DAÑO MENOR ,RECURSO ESTATAL,100,18.320033,-98.845546
461,TEHUITZINGO,SAN PEDRO LA JUNTA,21KPR1070V,PRIMARIA COMUNITARIA RURAL SAN PEDRO LA JUNTA ,13, DAÑO MENOR ,SEGUNDA ETAPA A,100,18.3314513,-98.2815049
462,TEHUITZINGO,TEXCALAPA,21KPR0646I,PRIMARIA COMUNITARIA RURAL TEXCALAPA,7, DAÑO MENOR ,SEGUNDA ETAPA A,100,18.3314513,-98.2815049
463,ATZITZIHUACÁN,SAN FRANCISCO XOCHITEOPAN,21DPR2376J,PROFESOR  JUAN RAMIREZ RAMOS,129, DAÑO PARCIAL ,ESCUELAS AL CIEN 2018,100,18.804444,-98.624167
464,TEHUITZINGO,TEXCALAPA,21KJN0746R,PREESCOLAR COMUNITARIO RURAL TEXCALAPA,5, DAÑO MENOR ,SEGUNDA ETAPA A,100,18.3314513,-98.2815049
465,ACATLÁN,AMATITLAN DE AZUETA,21DES0111H,EMILIANO ZAPATA,81, DAÑO MENOR ,SEGUNDA ETAPA A,100,18.176389,-98.078333
466,ATLIXCO,ATLIXCO,21DTV0169N,RAUL ISIDRO BURGOS,110, DAÑO MENOR ,SEGUNDA ETAPA A,100,18.921389,-98.357222
467,ATLIXCO,ATLIXCO,21EES0271U,SECUNDARIA OFICIAL ANTONIO GARFIAS,316, DAÑO MENOR ,SEGUNDA ETAPA A,100,18.907701,-98.434774
468,TLALTENANGO,TLALTENANGO,21EPR0451L,BENITO JUAREZ,556, DAÑO MENOR ,OTROS RECURSOS,100,19.169117,-98.33997
469,PUEBLA,HEROICA PUEBLA DE ZARAGOZA,21EBH0326D,PABLO GONZALEZ RIVAS,231, DAÑO MENOR ,DONACIÓN,100,18.541629,-97.491715
470,SAN FELIPE TEOTLALCINGO,SAN FELIPE TEOTLALCINGO,21DPR1906B,ESCUELA PRIMARIA LICENCIADO ALFREDO V. BONFIL,350, DAÑO MENOR ,TERCERA ETAPA,0,19.228283,-98.495086
471,ATLIXCO,SAN JERONIMO COYULA,21DPR2231O,PABLO TORRES BURGOS,451, DAÑO PARCIAL ,ESCUELAS AL CIEN 2018,100,18.893754,-98.51842
472,TECAMACHALCO,TECAMACHALCO,21EBT0153Y,CENTRO DE CAPACITACION Y DESARROLLO (CECADE) TECAMACHALCO,20, DAÑO MENOR ,DONACIÓN,100,18.8824602,-97.755026
473,ATLIXCO,EX-HACIENDA SAN AGUSTIN,21DJN1700T,TELPOCHCALLI,18, DAÑO MENOR ,SEGUNDA ETAPA A,100,18.933333,-98.394167
474,GUADALUPE,GUADALUPE,21EPR0124R,UNIDAD EDUCATIVA MIGUEL HIDALGO,200, DAÑO MENOR ,SEGUNDA ETAPA A,100,18.093032,-98.122056
475,HUAQUECHULA,TRONCONAL,21DPR0214K,HEROE DE NACOZARI,226, DAÑO MAYOR ,ESCUELAS AL CIEN 2018,100,18.805,-98.483611
476,TEPEXCO,TEPEXCO,21EMS0019I,FRANCISCO I. MADERO,177, DAÑO MENOR ,TERCERA ETAPA,100,18.574722,-98.256111
477,ATLIXCO,FRANCISCO VILLA,21DJN1230S,SALVADOR TOSCANO ESCOBEDO,23, DAÑO MENOR ,SEGUNDA ETAPA A,100,18.907222,-98.385278
478,ATLIXCO,GUADALUPE HUEXOCUAPAN,21DPR2739B,IGNACIO ZARAGOZA,29, DAÑO MENOR ,SEGUNDA ETAPA A,100,18.916667,-98.539167
479,HUAQUECHULA,SOLEDAD MORELOS,21DPR2116X,VICENTE GUERRERO,351, DAÑO PARCIAL ,ESCUELAS AL CIEN 2018,100,18.826111,-98.491667
480,ATLIXCO,LA SABANA (SAN JUAN LA SABANA),21DPR2249N,GENERAL LAZARO CARDENAS,171, DAÑO MENOR ,SEGUNDA ETAPA A,100,18.831111,-98.455556
481,OCOYUCAN,EMILIO PORTES GIL,21DPR0212M,MIGUEL ALEMAN,45, DAÑO PARCIAL ,ESCUELAS AL CIEN 2018,100,18.923611,-98.349722
482,EPATLÁN,TEPEACATZINGO,21DCC0324K,21 DE MARZO,18, DAÑO MENOR ,TERCERA ETAPA,0,18.605556,-98.366944
483,CUAYUCA DE ANDRADE,SAN PEDRO CUAYUCA,21ETV0652H,PROFESOR  MARCOS MARTINEZ,62, DAÑO MENOR ,SEGUNDA ETAPA A,100,18.488333,-98.183333
484,TOCHTEPEC,CHIPILTEPEC,21EJN0134H,ARCO IRIS,67, DAÑO MENOR ,OTROS RECURSOS,100,18.885833,-97.840833
485,XICOTLÁN,COACALCO,21ETV0497F,VICENTE GUERRERO,39, DAÑO MENOR ,TERCERA ETAPA,0,18.071667,-98.668056
486,TEPEXI DE RODRÍGUEZ,LAS FLORES,21DCC0003A,ROSAURA ZAPATA,19, DAÑO MENOR ,SEGUNDA ETAPA A,100,18.539454,-98.010509
487,OCOYUCAN,SAN BERNARDINO CHALCHIHUAPAN,21DPR2791Y,AQUILES SERDAN,513, DAÑO PARCIAL ,ESCUELAS AL CIEN 2018,100,18.970701,-98.336473
488,PETLALCINGO,TEPEJILLO,21DPR0187D,EMILIANO ZAPATA,21, DAÑO MENOR ,SEGUNDA ETAPA A,100,18.051111,-97.84
489,OCOYUCAN,SANTA CLARA OCOYUCAN,21DPR1212T,BENITO JUAREZ,594, DAÑO PARCIAL ,OTROS RECURSOS,100,18.981999,-98.309155
490,OCOYUCAN,SANTA CLARA OCOYUCAN,21DST0108M,ESCUELA SECUNDARIA TECNICA NUM. 99,229, DAÑO PARCIAL ,ESCUELAS AL CIEN 2018,100,18.981341,-98.309208
491,ATLIXCO,MARTIR DE CHINAMECA,21DPR1318M,LICENCIADO BENITO JUAREZ,13, DAÑO MENOR ,SEGUNDA ETAPA A,100,18.898056,-98.481111
492,ATLIXCO,SAN JUAN OCOTEPEC,21DTV0527K,SALVADOR DIAZ MIRON,96, DAÑO MENOR ,SEGUNDA ETAPA A,100,18.908889,-98.437778
493,TECOMATLÁN,LA UNION,21DTV0390O,MOCTEZUMA ILHUICAMINA,18, DAÑO MENOR ,SEGUNDA ETAPA A,100,18.068056,-98.309444
494,TECOMATLÁN,SAN MIGUEL DE LOZANO,21DJN0616O,PORFIRIO DIAZ,12, DAÑO MENOR ,SEGUNDA ETAPA A,100,18.061111,-98.349444
495,OCOYUCAN,SANTA CLARA OCOYUCAN,21DPB0152N,NIÑOS HEROES DE CHAPULTEPEC,283, DAÑO PARCIAL ,ESCUELAS AL CIEN 2018,100,18.976339,-98.335944
496,ATLIXCO,SAN PEDRO BENITO JUAREZ,21ETV0079U,IGNACIO ALLENDE,133, DAÑO MENOR ,SEGUNDA ETAPA A,100,18.949857,-98.541305
497,ATLIXCO,SANTA CRUZ TEHUIXPANGO,21EPR1603G,MOCTEZUMA ILHUICAMINA,339, DAÑO MENOR ,SEGUNDA ETAPA A,100,18.939167,-98.403333
498,AXUTLA,HUEHUEPIAXTLA,21ETV0358E,LEONIDES ANDREW ALMAZAN,7, DAÑO MENOR ,TERCERA ETAPA,0,18.155278,-98.385278
499,HUATLATLAUCA,HUATLATLAUCA,21KPR0061G,PRIMARIA COMUNITARIA RURAL ALVARO OBREGON (BARRANCA SAN MIGUEL),9, DAÑO MENOR ,TERCERA ETAPA,0,18.657112,-98.003014
500,PUEBLA,HEROICA PUEBLA DE ZARAGOZA,21EBH0051F,HERMANOS SERDAN,622, DAÑO MENOR ,TERCERA ETAPA,0,19.289364,-97.342916
501,OCOYUCAN,SANTA MARIA MALACATEPEC,21DPR1093W,EMILIANO ZAPATA,533, DAÑO MENOR ,OTROS RECURSOS,100,18.947118,-98.30113
502,TLALTENANGO,TLALTENANGO,21DPR2671L,MOTOLINIA,499, DAÑO MENOR ,OTROS RECURSOS,100,19.173592,-98.343413
503,OCOYUCAN,SANTA MARIA MALACATEPEC,21ETV0119E,JOSE MIJARES PALENCIA,154, DAÑO PARCIAL ,ESCUELAS AL CIEN 2018,100,18.953226,-98.295601
504,ATLIXCO,SAN PEDRO BENITO JUAREZ,21DPR1043O,NICOLAS BRAVO,222, DAÑO PARCIAL ,ESCUELAS AL CIEN 2018,100,18.945172,-98.547749
505,CHIAUTLA,LA PALMA,21EPR0745Y,EMILIANO ZAPATA,12, DAÑO MENOR ,SEGUNDA ETAPA A,100,18.324401,-98.646221
506,TEPEXCO,CALMECA (SAN JUAN CALMECA),21EPR0434V,IGNACIO ZARAGOZA,320, DAÑO MENOR ,ESCUELAS AL CIEN 2018,100,18.636915,-98.634567
507,OCOYUCAN,SANTIAGO COLTZINGO,21DPR2114Z,EMILIANO ZAPATA,34, DAÑO PARCIAL ,ESCUELAS AL CIEN 2018,100,18.923611,-98.318333
508,HUEHUETLÁN EL GRANDE,SANTO DOMINGO HUEHUETLAN,21EBH0194C,ADOLFO LOPEZ MATEOS,108, DAÑO MENOR ,SEGUNDA ETAPA A,100,18.405833,-96.85
509,CHIAUTLA,MEXICALCINGO DE LOS LLANOS,21EPR0703Z,EMILIANO ZAPATA,10, DAÑO MENOR ,SEGUNDA ETAPA A,100,18.264086,-98.428042
510,CHIAUTLA,CIUDAD DE CHIAUTLA DE TAPIA,21EBH0414Y,TIERRA Y LIBERTAD,51, DAÑO MENOR ,SEGUNDA ETAPA A,100,18.546389,-98.553056
511,CHIAUTLA,CHIAUZUMBA,21DPR2018W,MIGUEL HIDALGO,18, DAÑO MENOR ,SEGUNDA ETAPA A,100,18.345,-98.536944
512,CHIAUTLA,CASCALOTE DE BRAVO,21ETV0374W,BARTOLOME DE LAS CASAS,11, DAÑO MENOR ,SEGUNDA ETAPA A,100,18.361389,-98.624167
513,CHIAUTLA,CHIAUZUMBA,21ETV0376U,VAN GOGH,8, DAÑO MENOR ,SEGUNDA ETAPA A,100,18.345,-98.536944
514,CHIAUTLA,CIUDAD DE CHIAUTLA DE TAPIA,21DJN1706N,BATALLA DE PUEBLA,31, DAÑO MENOR ,SEGUNDA ETAPA A,100,18.430879,-98.701604
515,CHIAUTLA,CIUDAD DE CHIAUTLA DE TAPIA,21ETV0670X,GABINO BARREDA,242, DAÑO MENOR ,SEGUNDA ETAPA A,100,18.307628,-98.600943
516,XOCHILTEPEC,XOCHILTEPEC,21EBH0342V,XOCHILTEPEC LA LAGUNA,69, DAÑO MENOR ,TERCERA ETAPA,0,20.061771,-97.730741
517,HUEHUETLÁN EL GRANDE,ANALCO,21DPR1267W,EMILIANO ZAPATA,47, DAÑO MENOR ,SEGUNDA ETAPA A,100,18.734237,-98.175461
518,TOCHIMILCO,GUADALUPE CUILOTEPEC (SANTA CATARINA CUILOTEPEC),21DPR1044N,AQUILES SERDAN,67, DAÑO PARCIAL ,ESCUELAS AL CIEN 2018,100,18.87505,-98.620271
519,TEPEXI DE RODRÍGUEZ,SAN PABLO AMEYALTEPEC,21DPR0557F,GENERAL JUAN ALVAREZ,15, DAÑO MENOR ,SEGUNDA ETAPA A,100,18.351389,-97.878056
520,CHIAUTLA,CIUDAD DE CHIAUTLA DE TAPIA,21EBH0528Z,MANUEL AVILA CAMACHO,114, DAÑO MENOR ,SEGUNDA ETAPA A,100,18.853778,-98.188256
521,CHIAUTLA,CIUDAD DE CHIAUTLA DE TAPIA,21DJN1647O,NETZAHUALCOYOTL,11, DAÑO MENOR ,SEGUNDA ETAPA A,100,18.287976,-98.616937
522,TOCHIMILCO,SAN FRANCISCO HUILANGO,21DPR2903L,PLAN DE AYALA,116, DAÑO PARCIAL ,ESCUELAS AL CIEN 2018,100,18.842778,-98.583611
523,TEHUITZINGO,TLACHINOLA,21DPR0451M,VALENTIN GOMEZ FARIAS,8, DAÑO MENOR ,SEGUNDA ETAPA A,100,18.335042,-98.332278
524,CHIAUTLA,CIUDAD DE CHIAUTLA DE TAPIA,21ETV0383D,PABLO PICASSO,5, DAÑO MENOR ,SEGUNDA ETAPA A,100,18.334722,-98.744444
525,SAN MARTÍN TEXMELUCAN,SAN BALTAZAR TEMAXCALAC (EL POLLO GORDO),21DJN2444Z,MANUEL AVILA CAMACHO,25, DAÑO MENOR ,ESCUELAS AL CIEN 2018,100,19.245278,-98.404722
526,CHIAUTLA,CIUDAD DE CHIAUTLA DE TAPIA,21DJN0382Q,QUETZALCOATL,220, DAÑO MENOR ,SEGUNDA ETAPA A,100,18.295396,-98.603869
527,TLAHUAPAN,SANTA RITA TLAHUAPAN,21DCC0315C,BENITO JUAREZ,36, DAÑO MENOR ,ESCUELAS AL CIEN 2018,100,19.445833,-98.545278
528,CHIAUTLA,CIUDAD DE CHIAUTLA DE TAPIA,21EJN1097A,SAN JUAN DEL RIO,9, DAÑO MENOR ,SEGUNDA ETAPA A,100,18.19,-98.500278
529,TLAPANALÁ,TEPAPAYECA,21EPR0457F,MARIANO MATAMOROS,181, DAÑO MENOR ,OTROS RECURSOS,100,18.672778,-98.530556
530,TOCHIMILCO,SANTA CRUZ CUAUTOMATITLA,21DJN0861Z,CARLOS J. MENESES,80, DAÑO PARCIAL ,ESCUELAS AL CIEN 2018,100,18.889167,-98.659167
531,TOCHIMILCO,TECUANIPA (SAN MIGUEL TECUANIPA),21DPR0701B,XICOTENCATL,189, DAÑO MAYOR ,ESCUELAS AL CIEN 2018,100,18.881111,-98.619167
532,CHIAUTLA,CIUDAD DE CHIAUTLA DE TAPIA,21EJN1368C,TLAICA,15, DAÑO MENOR ,SEGUNDA ETAPA A,100,18.298056,-98.603611
533,CHIAUTLA,PILCAYA (SAN JUAN PILCAYA),21DJN0384O,PILCAYA,62, DAÑO MENOR ,SEGUNDA ETAPA A,100,18.236944,-98.706944
534,CHIAUTLA,QUETZOTLA (SAN MIGUEL),21EJN0090A,MARAVILANDIA,14, DAÑO MENOR ,SEGUNDA ETAPA A,100,18.201111,-98.663333
535,SAN PEDRO YELOIXTLAHUACA,SAN ISIDRO LABRADOR,21DPR0347A,IGNACIO ZARAGOZA,35, DAÑO MENOR ,TERCERA ETAPA,0,18.105833,-98.070833
536,CHIAUTLA,SAN JUAN DE LOS RIOS (SAN JUAN DEL RIO),21EPR0084G,MIGUEL HIDALGO,21, DAÑO MENOR ,SEGUNDA ETAPA A,100,18.19,-98.500278
537,CHIAUTLA,SANTA ANA TECOLAPA,21DJN0605I,TECOLAPA,19, DAÑO MENOR ,SEGUNDA ETAPA A,100,18.385556,-98.651944
538,CHIAUTLA,TEPOXMATLA,21DPR2022I,VENUSTIANO CARRANZA,14, DAÑO MENOR ,SEGUNDA ETAPA A,100,18.334722,-98.744444
539,CHIAUTLA,TLANCUALPICAN,21DJN0385N,CHILTEPETL,108, DAÑO MENOR ,SEGUNDA ETAPA A,100,18.430719,-98.701964
540,CHIAUTLA,CASCALOTE DE BRAVO,21DPR2025F,LICENCIADO LUIS CABRERA,20, DAÑO PARCIAL ,ESCUELAS AL CIEN 2018,100,18.361389,-98.624167
541,CHIETLA,CHIETLA,21DJN0740N,PIJE-TAO,71, DAÑO MENOR ,RECURSO ESTATAL,100,18.514419,-98.574138
542,CHIETLA,ATENCINGO,21DJN0947E,JOSE MARIA MARTINEZ RODRIGUEZ,128, DAÑO MENOR ,RECURSO ESTATAL,100,18.521068,-98.579716
543,CHIAUTLA,CIUDAD DE CHIAUTLA DE TAPIA,21EBH0075P,C.E. GENERAL EMILIANO ZAPATA,236, DAÑO PARCIAL ,ESCUELAS AL CIEN 2018,100,19.086699,-98.27572
544,CHIAUTLA,CIUDAD DE CHIAUTLA DE TAPIA,21ECB0003A,COLEGIO DE BACHILLERES PLANTEL  7,276, DAÑO PARCIAL ,ESCUELAS AL CIEN 2018,100,18.988886,-97.454332
545,CHIETLA,ATENCINGO,21EJN0544K,MARIANO PIÑA OLAYA,142, DAÑO MENOR ,RECURSO ESTATAL,100,18.516533,-98.601125
546,SAN JERÓNIMO XAYACATLÁN,GABINO BARREDA,21EJN0104N,GABRIELA MISTRAL,23, DAÑO MENOR ,TERCERA ETAPA,0,18.168056,-97.955833
547,CHIAUTLA,CIUDAD DE CHIAUTLA DE TAPIA,21DPR2096Z,MARIANO ANTONIO TAPIA,247, DAÑO PARCIAL ,ESCUELAS AL CIEN 2018,87,18.297831,-98.601389
548,SAN PABLO ANICANO,FRANCISCO GONZALEZ BOCANEGRA,21EPR0547Y,VENUSTIANO CARRANZA,22, DAÑO MENOR ,TERCERA ETAPA,0,18.152695,-98.172619
549,TEOTLALCO,LAS MARAVILLAS,21EPR0719Z,EMILIANO ZAPATA,8, DAÑO MENOR ,TERCERA ETAPA,0,18.422131,-98.810554
550,HUITZILTEPEC,SANTA CLARA HUITZILTEPEC,21EPR0151O,AQUILES SERDAN,366, DAÑO MENOR ,OTROS RECURSOS,100,18.770454,-97.880562
551,CHIETLA,CHIETLA,21DJN0007M,JUAN ENRIQUE PESTALOZZI,145, DAÑO MENOR ,RECURSO ESTATAL,100,18.517529,-98.578788
552,CHIETLA,SANTA CRUZ EL MIRADOR,21EJN0109I,CRI CRI,18, DAÑO MENOR ,RECURSO ESTATAL,100,18.495556,-98.646389
553,HUEHUETLÁN EL GRANDE,SAN NICOLAS HUAJUAPAN,21EPR0407Y,JOSE MARIA MORELOS Y PAVON,224, DAÑO MENOR ,SEGUNDA ETAPA A,100,18.795092,-98.194373
554,CHIETLA,LA PALMA (EL TRINQUETE),21DJN2153K,JUAN ESCUTIA,11, DAÑO MENOR ,RECURSO ESTATAL,100,18.474438,-98.602692
555,XOCHILTEPEC,XOCHILTEPEC,21EPR0473X,JUAN MANUEL ZARAGOZA,177, DAÑO MENOR ,TERCERA ETAPA,0,18.651667,-98.343333
556,SAN JERÓNIMO TECUANIPAN,SAN JERONIMO TECUANIPAN,21DJN0371K,FUEGO NUEVO,110, DAÑO MENOR ,OTROS RECURSOS,100,19.014264,-98.398984
557,CHIAUTLA,PILCAYA (SAN JUAN PILCAYA),21DPR2097Z,ABASOLO,75, DAÑO MAYOR ,ESCUELAS AL CIEN 2018,100,18.236944,-98.706944
558,CHIETLA,PUEBLO NUEVO DE PORFIRIO DIAZ,21DJN1067H,AZTECA,28, DAÑO MENOR ,RECURSO ESTATAL,100,18.5125,-98.555833
559,CHIETLA,SAN ISIDRO EL ORGANAL,21DJN2121S,FERNANDO MONTES DE OCA,34, DAÑO MENOR ,RECURSO ESTATAL,100,18.536667,-98.6225
560,CHIETLA,SAN ISIDRO EL ORGANAL,21DTV0236V,IGNACIO ZARAGOZA,27, DAÑO MENOR ,RECURSO ESTATAL,100,18.536667,-98.6225
561,CHIAUTLA,SANTA ANA TECOLAPA,21DPR2030R,SIMON BOLIVAR,24, DAÑO PARCIAL ,ESCUELAS AL CIEN 2018,100,18.385556,-98.651944
562,CHIETLA,VIBORILLAS DE HIDALGO,21DJN1020N,FRAY JUAN DE ZUMARRAGA,58, DAÑO MENOR ,RECURSO ESTATAL,100,18.4925,-98.575
563,CHIETLA,SAN MIGUEL LA TOMA,21DJN1031T,BANDERA MEXICANA,51, DAÑO MENOR ,RECURSO ESTATAL,100,18.525278,-98.575833
564,CHIETLA,SAN MIGUEL TECOLACIO,21DJN1125H,ZAMNA,49, DAÑO MENOR ,RECURSO ESTATAL,100,18.441944,-98.6675
565,SAN MARTÍN TEXMELUCAN,SAN MARTIN TEXMELUCAN DE LABASTIDA,21DPR0307Z,MIGUEL HIDALGO,327, DAÑO MENOR ,ESCUELAS AL CIEN 2018,100,19.291024,-98.443628
566,COHETZALA,SANTA MARIA COHETZALA,21DPR0904X,IGNACIO ZARAGOZA,67, DAÑO MAYOR ,ESCUELAS AL CIEN 2018,100,18.207222,-98.806111
567,ATZITZIHUACÁN,SANTIAGO ATZITZIHUACAN,21EBH0139J,ABRAHAM SANCHEZ LOPEZ,195, DAÑO MENOR ,OTROS RECURSOS,100,18.72207,-98.450663
568,JUAN N. MÉNDEZ,ATENAYUCA,21DCC1187E,YOLOT`SI,60, DAÑO MENOR ,TERCERA ETAPA,100,18.543333,-97.771389
569,CHIETLA,ESCAPE DE LAGUNILLAS,21EJN0545J,EMILIANO ZAPATA,93, DAÑO MENOR ,RECURSO ESTATAL,100,18.489923,-98.656258
570,HUEHUETLÁN EL CHICO,HUEHUETLAN EL CHICO,21EBH1067N,BACHILLERATO DIGITAL NUM. 54,19, DAÑO PARCIAL ,ESCUELAS AL CIEN 2018,100,20.106667,-97.599444
571,COATZINGO,ZARAGOZA,21DPR0035Z,IGNACIO ZARAGOZA,41, DAÑO MENOR ,TERCERA ETAPA,0,18.586944,-98.1775
572,SAN MARTÍN TEXMELUCAN,EL MORAL,21DPR0309Y,DOMINGO ARENAS,327, DAÑO MENOR ,ESCUELAS AL CIEN 2018,100,19.27258,-98.443077
573,HUEHUETLÁN EL CHICO,HUEHUETLAN EL CHICO,21EPR0653H,HONORATO TLASECA BARRERA,158, DAÑO MAYOR ,ESCUELAS AL CIEN 2018,100,18.378712,-98.688176
574,CHIETLA,SAN NICOLAS TENEXCALCO,21EJN0092Z,XOCHITL,51, DAÑO MENOR ,RECURSO ESTATAL,100,18.481111,-98.596667
575,HUEHUETLÁN EL GRANDE,SAN PEDRO AJALPAN,21KPR0147M,PRIMARIA COMUNITARIA RURAL SAN PEDRO AJALPAN,5, DAÑO MENOR ,TERCERA ETAPA,0,18.703496,-98.169416
576,CHIETLA,ATENCINGO,21DPR2714T,GENERAL EMILIANO ZAPATA,157, DAÑO MENOR ,SEGUNDA ETAPA A,100,18.519097,-98.603941
577,CHIETLA,SAN ANTONIO COAYUCA,21EPR0099I,MIGUEL HIDALGO,148, DAÑO MENOR ,SEGUNDA ETAPA A,100,18.557778,-98.706944
578,IXCAMILPA DE GUERRERO,BUENAVISTA DE ZAPATA,21ETV0384C,EMILIANO ZAPATA,64, DAÑO PARCIAL ,ESCUELAS AL CIEN 2018,100,18.0175,-98.7025
579,YEHUALTEPEC,YEHUALTEPEC,21DPR0973T,AQUILES SERDAN,587, DAÑO MENOR ,TERCERA ETAPA,0,18.794811,-97.660367
580,TLAPANALÁ,TLAPANALA,21EPR0455H,IGNACIO ZARAGOZA,462, DAÑO MENOR ,TERCERA ETAPA,0,18.69938,-98.538273
581,CHIETLA,TEMAXCALAPA DE GABINO BARREDA,21DPR2205Q,MARTIR DE CHINAMECA,66, DAÑO MENOR ,SEGUNDA ETAPA A,100,18.554167,-98.606111
582,CHIETLA,BUENAVISTA DE BENITO JUAREZ,21DPR2187R,BENITO JUAREZ,193, DAÑO MENOR ,SEGUNDA ETAPA A,100,18.460556,-98.636389
583,CHIETLA,SAN NICOLAS TENEXCALCO,21DPR2204R,MARTIR DE CHINAMECA,127, DAÑO MENOR ,SEGUNDA ETAPA A,100,18.481111,-98.596667
584,DOMINGO ARENAS,DOMINGO ARENAS,21ETV0104C,IGNACIO LOPEZ RAYON,397, DAÑO MENOR ,TERCERA ETAPA,100,19.141656,-98.453546
585,SAN MATÍAS TLALANCALECA,SAN MATIAS TLALANCALECA,21DPR0320U,MIGUEL HIDALGO,400, DAÑO MENOR ,TERCERA ETAPA,0,19.358675,-98.526403
586,IXCAMILPA DE GUERRERO,IXCAMILPA,21DPR3423K,LEONA VICARIO,55, DAÑO PARCIAL ,ESCUELAS AL CIEN 2018,100,18.025647,-98.693456
587,YEHUALTEPEC,SAN MIGUEL ZOZUTLA,21ETV0248Z,EUCLIDES,273, DAÑO MENOR ,OTROS RECURSOS,100,18.754196,-97.64807
588,CHIETLA,CHIETLA,21EBH0096B,DOLORES CAMPOS PONCE,125, DAÑO MENOR ,SEGUNDA ETAPA A,100,19.144096,-98.226801
589,CHIETLA,CHIETLA,21DPR2658R,GENERAL LAZARO CARDENAS,113, DAÑO MENOR ,SEGUNDA ETAPA A,100,18.514023,-98.606878
590,CHIETLA,CHIETLA,21EBH0396Z,LIBERTADORES DE AMERICA,73, DAÑO MENOR ,SEGUNDA ETAPA A,100,18.4875,-98.636389
591,CHIETLA,CHIETLA,21DTV0050Q,NIÑOS HEROES DE CHAPULTEPEC,106, DAÑO MENOR ,SEGUNDA ETAPA A,100,18.515901,-98.578514
592,CHIETLA,DON ROQUE,21DPR2186S,JOSE MARIA MORELOS,40, DAÑO MENOR ,SEGUNDA ETAPA A,100,18.479167,-98.6275
593,CHIETLA,SAN ANTONIO COAYUCA,21ETV0574U,JUAN CRESCENCIO REJON,64, DAÑO MENOR ,SEGUNDA ETAPA A,100,18.557778,-98.706944
594,CHIETLA,SAN ISIDRO EL ORGANAL,21DPR2095A,BASILIO BADILLO,69, DAÑO MENOR ,SEGUNDA ETAPA A,100,18.536667,-98.6225
595,CHIETLA,AHUEHUETZINGO,21DPR2188Q,DOCTOR RAFAEL SERRANO,155, DAÑO MENOR ,SEGUNDA ETAPA A,100,18.4875,-98.636389
596,CHIETLA,CHIETLA,21EBH0535J,EMILIANO ZAPATA,66, DAÑO MENOR ,SEGUNDA ETAPA A,100,18.509167,-98.479722
597,JOLALPAN,XOCHITEPEC,21EPR0173Z,MIGUEL HIDALGO,125, DAÑO MENOR ,TERCERA ETAPA,0,18.228333,-98.876111
598,CHIETLA,LAGUNILLAS DE RAYON (ALCHICHICA),21DPR1956J,AQUILES SERDAN,126, DAÑO MENOR ,SEGUNDA ETAPA A,100,18.485556,-98.6975
599,CHIETLA,BUENAVISTA DE BENITO JUAREZ,21DJN0835A,TEODOMIRO MANZANO,68, DAÑO MENOR ,SEGUNDA ETAPA A,100,18.460556,-98.636389
600,JOLALPAN,JOLALPAN,21EBH0249P,IGNACIO ZARAGOZA,152, DAÑO MENOR ,TERCERA ETAPA,0,18.208611,-98.803611
601,CHIETLA,AHUEHUETZINGO,21DJN0648G,AHUEHUETZINGO,66, DAÑO MENOR ,SEGUNDA ETAPA A,100,18.4875,-98.636389
602,JOLALPAN,CUAJINICUILA,21EPR0228M,VICENTE GUERRERO,16, DAÑO MENOR ,OTROS RECURSOS,0,18.2625,-98.983611
603,JOLALPAN,AZOQUITEMPAN,21DPR2492Z,MIGUEL HIDALGO,9, DAÑO MENOR ,TERCERA ETAPA,0,18.361029,-98.858063
604,CHIETLA,AHUEHUETZINGO,21ETV0707U,EMILIANO ZAPATA,40, DAÑO MENOR ,SEGUNDA ETAPA A,100,18.4875,-98.636389
605,CHIETLA,CHIETLA,21ETV0387Z,ARQUIMEDES,41, DAÑO MENOR ,SEGUNDA ETAPA A,100,18.514707,-98.571871
606,CHIETLA,CHIETLA,21EJN1056A,SAN ISIDRO LA SABILA,14, DAÑO MENOR ,SEGUNDA ETAPA A,100,18.565278,-98.558889
607,TEPEOJUMA,TEPEOJUMA,21ETV0470Z,CAROLINA BONILLA,206, DAÑO MENOR ,TERCERA ETAPA,0,18.724834,-98.458727
608,ZAPOTITLÁN,ZAPOTITLAN SALINAS,21EBH0057Z,GENERAL IGNACIO ZARAGOZA,199, DAÑO MENOR ,OTROS RECURSOS,100,19.047242,-98.203991
609,TILAPA,SAN FELIX RIJO,21DPR0582E,ALEJANDRO CAZALEZ,154, DAÑO MENOR ,TERCERA ETAPA,0,18.620278,-98.550278
610,ZAPOTITLÁN,ZAPOTITLAN SALINAS,21DPR0048C,HERMANOS SERDAN,126, DAÑO MENOR ,TERCERA ETAPA,0,18.329624,-97.47118
611,CHIETLA,CORAZON DEL CERRO,21DJN0983J,UXMAL,24, DAÑO MENOR ,SEGUNDA ETAPA A,100,18.479167,-98.6275
612,CHIETLA,EL CASCALOTE (LAZARO CARDENAS),21DJN2510I,PREESCOLAR GENERAL,9, DAÑO MENOR ,SEGUNDA ETAPA A,100,18.538056,-98.606944
613,CORONANGO,SANTA MARIA CORONANGO,21EJN1342V,NUEVA GENERACION,69, DAÑO MENOR ,TERCERA ETAPA,0,19.132222,-98.306944
614,SAN PEDRO YELOIXTLAHUACA,SAN PEDRO YELOIXTLAHUACA,21DJN0392X,JOAQUIN BARANDA,77, DAÑO MENOR ,TERCERA ETAPA,0,18.116944,-98.077222
615,PUEBLA,PUEBLA,21DBT0008N,CENTRO DE CAPACITACION PARA EL TRABAJO INDUSTRIAL NUM. 8,1634, DAÑO MAYOR ,ESCUELAS AL CIEN 2018,100,19.039552,-98.214585
616,SAN MARTÍN TEXMELUCAN,SAN JERONIMO TIANGUISMANALCO,21ETV0640C,VICENTE SUAREZ,289, DAÑO MENOR ,ESCUELAS AL CIEN 2018,100,19.243056,-98.420556
617,TEHUITZINGO,CUAULUTLA,21DPR2856R,VICENTE GUERRERO,17, DAÑO MENOR ,SEGUNDA ETAPA A,100,18.353889,-98.227778
618,CUAUTLANCINGO,LA TRINIDAD CHAUTENCO,21DPR2193B,MIGUEL HIDALGO,570, DAÑO MENOR ,SEGUNDA ETAPA A,100,19.088847,-98.267304
619,CUAUTLANCINGO,SAN JUAN CUAUTLANCINGO,21DST0019T,ESCUELA SECUNDARIA TECNICA NUM. 19 VICENTE SUÁREZ FERRER,1279, DAÑO MENOR ,SEGUNDA ETAPA A,100,19.097524,-98.27172
620,CHIETLA,LA SOLEDAD,21DPR2202T,IGNACIO ZARAGOZA,44, DAÑO MENOR ,SEGUNDA ETAPA A,100,18.462222,-98.615278
621,CUAUTLANCINGO,SANCTORUM,21DPR3046Z,CARMEN SERDAN,206, DAÑO MENOR ,TERCERA ETAPA,0,19.096041,-98.248512
622,HUATLATLAUCA,HUATLATLAUCA,21KJN1485C,PREESCOLAR COMUNITARIO RURAL ALVARO OBREGON (BARRANCA SAN MIGUEL),5, DAÑO MENOR ,TERCERA ETAPA,0,18.6827941,-98.0570181
623,HUAQUECHULA,HUAQUECHULA,21DCC0787S,AZTECAS,12, DAÑO MENOR ,SEGUNDA ETAPA A,100,18.695,-98.596389
624,CHIETLA,LAGUNILLAS DE RAYON (ALCHICHICA),21ETV0642A,GABINO BARREDA,51, DAÑO MENOR ,SEGUNDA ETAPA A,100,18.485556,-98.6975
625,TEPANCO DE LÓPEZ,TEPANCO DE LOPEZ,21DST0017V,ESCUELA SECUNDARIA TECNICA NUM. 17,542, DAÑO MENOR ,TERCERA ETAPA,0,18.556918,-97.561907
626,IXCAQUIXTLA,SAN JUAN IXCAQUIXTLA,21DPR2513W,HIMNO NACIONAL,429, DAÑO MENOR ,TERCERA ETAPA,100,18.460562,-97.830407
627,CHIETLA,LAGUNILLAS DE RAYON (ALCHICHICA),21EBH0542T,GABRIEL GARCIA MARQUEZ,48, DAÑO MENOR ,SEGUNDA ETAPA A,100,18.836667,-98.434722
628,CHIETLA,LAGUNILLAS DE RAYON (ALCHICHICA),21DJN0742L,ITZOCAN,44, DAÑO MENOR ,SEGUNDA ETAPA A,100,18.485556,-98.6975
629,HUAQUECHULA,SAN JUAN VALLARTA,21DPR2118V,DOCTOR BELISARIO DOMINGUEZ,95, DAÑO MENOR ,SEGUNDA ETAPA A,100,18.733056,-98.500833
630,HUAQUECHULA,CACALOXUCHITL,21EST0001T,ESCUELA SECUNDARIA TECNICA AGROPECUARIA NUM 1 SALVADOR TOSCANO,287, DAÑO MENOR ,SEGUNDA ETAPA A,100,18.787745,-98.486683
631,HUAQUECHULA,TEACALCO DE DORANTES (SAN JOSE TEACALCO),21DTV0260V,FRANCISCO VILLA,69, DAÑO MENOR ,SEGUNDA ETAPA A,100,18.804444,-98.507222
632,HUAQUECHULA,HUAQUECHULA,21DTV0259F,JOSE VASCONCELOS,79, DAÑO MENOR ,SEGUNDA ETAPA A,100,18.826111,-98.491667
633,HUAQUECHULA,HUAQUECHULA,21DTV0391N,JUANA DE ASBAJE,39, DAÑO MENOR ,SEGUNDA ETAPA A,100,18.788333,-98.450556
634,CHIETLA,PUEBLO NUEVO DE PORFIRIO DIAZ,21ETV0573V,FELIPE ANGELES,40, DAÑO MENOR ,SEGUNDA ETAPA A,100,18.5125,-98.555833
635,HUAQUECHULA,SAN LUCAS MATLALA,21DPR2117W,MAESTRO RAFAEL SERRANO,39, DAÑO MENOR ,SEGUNDA ETAPA A,100,18.691667,-98.603611
636,HUEHUETLÁN EL CHICO,HUEHUETLAN EL CHICO,21EBH0148R,FAUSTO FELIX AGUILAR QUIROZ,230, DAÑO MENOR ,TERCERA ETAPA,0,18.860716,-97.382852
637,CHIETLA,SAN ANTONIO COAYUCA,21DJN0946F,CHIMALLI,45, DAÑO MENOR ,SEGUNDA ETAPA A,100,18.557778,-98.706944
638,CHIETLA,SAN JOSE LOS LAURELES,21DPR0807V,BENITO JUAREZ,24, DAÑO MENOR ,SEGUNDA ETAPA A,100,18.501116,-98.698454
639,TEPANCO DE LÓPEZ,TEPANCO DE LOPEZ,21EBH0217X,GUILLERMO GONZALEZ CAMARENA,328, DAÑO MENOR ,TERCERA ETAPA,0,19.035185,-98.258565
640,HUAQUECHULA,TEACALCO DE DORANTES (SAN JOSE TEACALCO),21DJN0585L,MANUEL DOBLADO,90, DAÑO MENOR ,SEGUNDA ETAPA A,100,18.804444,-98.507222
641,HUAQUECHULA,TLAPETLAHUAYA (SAN BARTOLO TLAPETLAHUAYA),21DPR1276D,MIGUEL HIDALGO,62, DAÑO MENOR ,SEGUNDA ETAPA A,100,18.755278,-98.571389
642,TEOTLALCO,SAN MIGUEL,21DJN1126G,COLIBRI,84, DAÑO MENOR ,TERCERA ETAPA,0,18.521111,-98.8275
643,CHIETLA,SANTA CRUZ EL MIRADOR,21DPR0979N,GENERAL MANUEL AVILA CAMACHO,63, DAÑO MENOR ,SEGUNDA ETAPA A,100,18.495556,-98.646389
644,IXCAMILPA DE GUERRERO,BUENAVISTA DE ZAPATA,21ETK0024L,TELEBACHILLERATO COMUNITARIO NUM. 24,51, DAÑO MENOR ,TERCERA ETAPA,0,20.011961,-97.351484
645,CHIETLA,TEMAXCALAPA DE GABINO BARREDA,21DJN0386M,TEMAXCALAPA,30, DAÑO MENOR ,SEGUNDA ETAPA A,100,18.554167,-98.606111
646,HUAQUECHULA,SAN DIEGO EL ORGANAL,21DTV0152N,NETZAHUALCOYOTL,72, DAÑO MENOR ,SEGUNDA ETAPA A,100,18.730833,-98.516667
647,MOLCAXAC,SANTA CRUZ HUITZILTEPEC,21DJN0437C,YAN KUI TANESI,52, DAÑO MENOR ,TERCERA ETAPA,0,18.733333,-97.875
648,HUEJOTZINGO,SAN JUAN PANCOAC,21DPR2418S,PEDRO MORALES,167, DAÑO MENOR ,SEGUNDA ETAPA A,100,19.149167,-98.441944
649,TEHUITZINGO,TEHUITZINGO,21DJN0768T,ANTONIO CRISOSTOMO MUNOZ,25, DAÑO MENOR ,OTROS RECURSOS,100,18.393611,-98.2025
650,HUEJOTZINGO,SAN MIGUEL TIANGUIZOLCO,21DJN0450X,XIUHTECUHTLI,152, DAÑO MENOR ,SEGUNDA ETAPA A,100,19.158611,-98.440833
651,HUEJOTZINGO,SAN JUAN PANCOAC,21ETV0697D,LEANDRO VALLE,50, DAÑO MENOR ,SEGUNDA ETAPA A,100,19.149167,-98.441944
652,IZÚCAR DE MATAMOROS,SAN CARLOS BUENAVISTA,21DPR2486P,AGUSTIN CORTES,128, DAÑO MENOR ,SEGUNDA ETAPA A,100,18.514167,-98.519722
653,CHIETLA,TZOMPAHUACAN,21EPR0100H,BENITO JUAREZ,44, DAÑO MENOR ,SEGUNDA ETAPA A,100,18.530278,-98.7025
654,TEHUACÁN,TEHUACAN,21MSU1241G,UNIVERSIDAD TECNOLOGICA DE TEHUACAN,2010, DAÑO MENOR ,TERCERA ETAPA,100,18.414898,-97.344065
655,IZÚCAR DE MATAMOROS,IZUCAR DE MATAMOROS,21EBH0779E,BACHILLERATO MUNICIPAL,0, DAÑO MENOR ,OTROS RECURSOS,100,18.068056,-98.309444
656,IZÚCAR DE MATAMOROS,SAN LUCAS COLUCAN,21DJN0218Q,ARISTEO JUAREZ FUENTES,107, DAÑO MENOR ,SEGUNDA ETAPA A,100,18.509167,-98.479722
657,IZÚCAR DE MATAMOROS,SANTA MARIA XUCHAPA,21EBH1176U,BACHILLERATO DIGITAL NUM. 200,46, DAÑO MENOR ,SEGUNDA ETAPA A,100,18.371667,-98.4925
658,CHIETLA,TZOMPAHUACAN,21ETV0391M,DANIEL COSIO,39, DAÑO MENOR ,SEGUNDA ETAPA A,100,18.530278,-98.7025
659,IZÚCAR DE MATAMOROS,LAS CASITAS,21DPR2455W,BENITO JUAREZ,19, DAÑO MENOR ,SEGUNDA ETAPA A,100,18.499439,-98.354066
660,IZÚCAR DE MATAMOROS,IZUCAR DE MATAMOROS,21DCC1200I,CONSUELO VARGAS DE ROMERO,40, DAÑO MENOR ,SEGUNDA ETAPA A,100,18.565801,-98.440871
661,TEPATLAXCO DE HIDALGO,TEPATLAXCO DE HIDALGO,21DES0044Z,JUAN DE LA BARRERA,1054, DAÑO MENOR ,TERCERA ETAPA,0,19.086281,-97.974642
662,TEHUACÁN,TEHUACAN,21EPR0420S,INGENIERO PASTOR ROUAIX,965, DAÑO MENOR ,OTROS RECURSOS,100,18.454951,-97.390621
663,PUEBLA,LA RESURRECCION,21DST0040W,ESCUELA SECUNDARIA TECNICA NUM. 35,1514, DAÑO MENOR ,TERCERA ETAPA,0,19.090616,-98.130346
664,AMOZOC,AMOZOC DE MOTA,21EPO0002J,UNIVERSIDAD POLITÉCNICA DE AMOZOC,1291, DAÑO MENOR ,TERCERA ETAPA,0,19.074398,-98.041976
665,TEHUACÁN,TEHUACAN,21EES0246V,HEROES DE LA INDEPENDENCIA,866, DAÑO MENOR ,TERCERA ETAPA,100,18.462174,-97.417156
666,TEHUACÁN,TEHUACAN,21EPR0594I,C.E. PRESIDENTE VENUSTIANO CARRANZA,854, DAÑO MENOR ,TERCERA ETAPA,0,18.469243,-97.397099
667,TEHUACÁN,TEHUACAN,21DPR0417F,LIBERACION,829, DAÑO MENOR ,TERCERA ETAPA,0,18.476876,-97.396952
668,AMOZOC,SAN MATEO,21DPR2367B,BENITO JUAREZ,828, DAÑO MENOR ,TERCERA ETAPA,0,19.043048,-98.075341
669,SAN MIGUEL XOXTLA,SAN MIGUEL XOXTLA,21DST0020I,ESCUELA SECUNDARIA TECNICA NUM. 20,948, DAÑO MENOR ,TERCERA ETAPA,100,19.164657,-98.30943
670,PUEBLA,HEROICA PUEBLA DE ZARAGOZA,21DTV0082I,TELESECUNDARIA 82,740, DAÑO MENOR ,TERCERA ETAPA,0,19.048363,-98.153937
671,PUEBLA,HEROICA PUEBLA DE ZARAGOZA,21DES0021P,TIERRA Y LIBERTAD,731, DAÑO MENOR ,TERCERA ETAPA,0,19.013331,-98.208678
672,HUEJOTZINGO,CUARTO BARRIO,21EPR1527R,C.E. PROFESOR ENRIQUE MARTINEZ MARQUEZ,759, DAÑO MENOR ,TERCERA ETAPA,0,19.163859,-98.411894
673,TEHUACÁN,TEHUACAN,21DES0116C,RAUL LOPEZ RAMIREZ,934, DAÑO MENOR ,TERCERA ETAPA,100,18.451024,-97.373123
674,TEHUACÁN,TEHUACAN,21DST0094Z,ESCUELA SECUNDARIA TECNICA NUM. 86,976, DAÑO MENOR ,TERCERA ETAPA,0,18.452036,-97.415537
675,CUAPIAXTLA DE MADERO,CUAPIAXTLA DE MADERO,21EPR0067Q,ALVARO OBREGON,729, DAÑO MENOR ,TERCERA ETAPA,0,18.914843,-97.827006
676,CORONANGO,CORONANGO,21DST0049N,ESCUELA SECUNDARIA TECNICA NUM. 45,729, DAÑO MENOR ,TERCERA ETAPA,100,19.124571,-98.302373
677,EPATLÁN,SANTA ANA NECOXTLA,21TAR0048S,ALBERGUE ESCOLAR RURAL NUM. 48,61, DAÑO PARCIAL ,ESCUELAS AL CIEN 2018,100,18.613313,-98.383846
678,EPATLÁN,SAN MATEO OXTOTLA,21DPR2168C,HIDALGO,9, DAÑO PARCIAL ,ESCUELAS AL CIEN 2018,100,18.607778,-98.389444
679,PUEBLA,HEROICA PUEBLA DE ZARAGOZA,21DPB0610J,QUETZALCOATL,707, DAÑO MENOR ,TERCERA ETAPA,100,19.089593,-98.136252
680,CORONANGO,SANTA MARIA CORONANGO,21DPR2544P,JUAN DE DIOS PEZA,720, DAÑO MENOR ,OTROS RECURSOS,100,19.131213,-98.287838
681,SAN PEDRO CHOLULA,CHOLULA DE RIVADAVIA,21DPR1896L,EMPERADOR CUAUHTEMOC,714, DAÑO MENOR ,OTROS RECURSOS,100,19.069407,-98.321617
682,TEPEACA,TEPEACA,21DCT0304N,CENTRO DE ESTUDIOS TECNOLÓGICOS INDUSTRIALES Y DE SERVICIOS NUM. 151,1105, DAÑO MAYOR ,ESCUELAS AL CIEN 2018,100,19.08639,-98.223356
683,IZÚCAR DE MATAMOROS,SANTA MARIA XUCHAPA,21DPR2483S,AGUSTIN CORTES,124, DAÑO MAYOR ,ESCUELAS AL CIEN 2018,100,18.524167,-98.456111
684,PUEBLA,SANTA LUCIA VILLA ALTAMIRANO,21DPR3684W,JUAN CRISOSTOMO BONILLA,707, DAÑO MENOR ,TERCERA ETAPA,0,18.958902,-98.226961
685,IZÚCAR DE MATAMOROS,LA GALARZA,21DPR2475J,BENITO JUAREZ,299, DAÑO MAYOR ,ESCUELAS AL CIEN 2018,100,18.655498,-98.464554
686,PUEBLA,SANTA MARIA XONACATEPEC,21DST0077J,ESCUELA SECUNDARIA TECNICA NUM. 66,619, DAÑO MENOR ,TERCERA ETAPA,0,19.100557,-98.092176
687,SAN PEDRO CHOLULA,CHOLULA DE RIVADAVIA,21DES0023N,PROFESOR  MOISES SAENZ,1377, DAÑO MENOR ,OTROS RECURSOS,100,19.068872,-98.324507
688,IZÚCAR DE MATAMOROS,IZUCAR DE MATAMOROS,21DCT0003R,CENTRO DE BACHILLERATO TECNOLOGICO INDUSTRIAL Y DE SERVICIOS NUM. 184,941, DAÑO MAYOR ,ESCUELAS AL CIEN 2018,100,19.289224,-98.426444
689,IZÚCAR DE MATAMOROS,IZUCAR DE MATAMOROS,21DJN0162E,DIEGO RIVERA,310, DAÑO MENOR ,SEGUNDA ETAPA A,100,18.599618,-98.45875
690,IZÚCAR DE MATAMOROS,SAN PEDRO CALANTLA,21EPR0166Q,CIRO GAVITO,60, DAÑO PARCIAL ,ESCUELAS AL CIEN 2018,100,18.596389,-98.395556
691,IZÚCAR DE MATAMOROS,SAN JUAN RABOSO,21DPR3425I,EMILIANO ZAPATA,182, DAÑO MENOR ,SEGUNDA ETAPA A,100,18.571777,-98.440121
692,IZÚCAR DE MATAMOROS,MATZACO,21DPR2494Y,EMILIANO ZAPATA,177, DAÑO MENOR ,SEGUNDA ETAPA A,100,18.560497,-98.485301
693,IZÚCAR DE MATAMOROS,EL CALVARIO,21DPR3431T,EMPERADOR CUAUHTEMOC,113, DAÑO MENOR ,SEGUNDA ETAPA A,100,18.559068,-98.556929
694,IZÚCAR DE MATAMOROS,IZUCAR DE MATAMOROS,21DPR1027X,CUAUHTEMOC,107, DAÑO PARCIAL ,ESCUELAS AL CIEN 2018,100,18.585885,-98.46236
695,IZÚCAR DE MATAMOROS,SAN MANUEL LA PAROTA,21DTV0411K,ESCUDO NACIONAL,47, DAÑO MENOR ,TERCERA ETAPA,100,18.371667,-98.4925
696,IZÚCAR DE MATAMOROS,SAN ISIDRO,21DPR2489M,FRANCISCO MENDOZA,30, DAÑO MENOR ,TERCERA ETAPA,100,18.569444,-98.424167
697,IZÚCAR DE MATAMOROS,IZUCAR DE MATAMOROS,21SBC2103Q,HERMANOS SERDAN,41, DAÑO MENOR ,SEGUNDA ETAPA A,0,18.464952,-97.374198
698,IZÚCAR DE MATAMOROS,IZUCAR DE MATAMOROS,21DPR2787L,JESUS MERINO,277, DAÑO MENOR ,SEGUNDA ETAPA A,100,18.604224,-98.477914
699,IZÚCAR DE MATAMOROS,IZUCAR DE MATAMOROS,21DCC1161X,JOSEFA ORTIZ DE DOMINGUEZ,41, DAÑO MENOR ,SEGUNDA ETAPA A,100,18.675862,-98.444029
700,IZÚCAR DE MATAMOROS,LA GALARZA,21EBH0533L,JOSEFA ORTIZ DE DOMINGUEZ,102, DAÑO MENOR ,SEGUNDA ETAPA A,100,18.379444,-97.578889
701,ATZITZIHUACÁN,SAN JUAN AMECAC,21EST0002S,TENIENTE JOSE AZUETA,300, DAÑO MENOR ,DONACIÓN,100,18.82957,-98.656795
702,IZÚCAR DE MATAMOROS,IZUCAR DE MATAMOROS,21DPR0516F,LICENCIADO BENITO JUAREZ,456, DAÑO MENOR ,SEGUNDA ETAPA A,100,18.595086,-98.468668
703,IZÚCAR DE MATAMOROS,IZUCAR DE MATAMOROS,21EJN0915L,LOMAS DE GUADALUPE,56, DAÑO MENOR ,SEGUNDA ETAPA A,100,18.610394,-98.472774
704,IZÚCAR DE MATAMOROS,SAN MIGUEL LAS MINAS,21DJN0601M,LUNARITA,47, DAÑO MENOR ,TERCERA ETAPA,100,18.518333,-98.334167
705,IZÚCAR DE MATAMOROS,SANTA MARIA XUCHAPA,21DJN0864W,MANUEL PAYNO,57, DAÑO MENOR ,SEGUNDA ETAPA A,100,18.524167,-98.456111
706,IZÚCAR DE MATAMOROS,SAN JUAN RABOSO,21DPR2481U,FRANCISCO I. MADERO,295, DAÑO PARCIAL ,ESCUELAS AL CIEN 2018,100,18.573096,-98.439526
707,IZÚCAR DE MATAMOROS,MEXQUITEPEC,21DPR1108H,MARIANO ESCOBEDO,24, DAÑO MENOR ,TERCERA ETAPA,100,18.443931,-98.38929
708,IZÚCAR DE MATAMOROS,IZUCAR DE MATAMOROS,21DTV0302D,NIÑOS HEROES,236, DAÑO MENOR ,SEGUNDA ETAPA A,100,18.609824,-98.449367
709,IZÚCAR DE MATAMOROS,IZUCAR DE MATAMOROS,21EBH0646O,OCTAVIO PAZ,49, DAÑO MENOR ,SEGUNDA ETAPA A,0,18.853333,-97.315
710,IZÚCAR DE MATAMOROS,IZUCAR DE MATAMOROS,21DPR0200H,ITZOCAN,73, DAÑO PARCIAL ,ESCUELAS AL CIEN 2018,100,18.608178,-98.458357
711,IZÚCAR DE MATAMOROS,IZUCAR DE MATAMOROS,21EJN0287L,PEQUEÑOS WINDIS,107, DAÑO MENOR ,SEGUNDA ETAPA A,100,18.597534,-98.491103
712,IZÚCAR DE MATAMOROS,IZUCAR DE MATAMOROS,21EBH0463G,PORFIRIO FLORES HIDALGO,97, DAÑO MENOR ,SEGUNDA ETAPA A,100,18.903203,-98.439781
713,IZÚCAR DE MATAMOROS,IZUCAR DE MATAMOROS,21DPR2476I,JOSE MARIA HERCULANO SANCHEZ,489, DAÑO MAYOR ,ESCUELAS AL CIEN 2018,100,18.602644,-98.46423
714,IZÚCAR DE MATAMOROS,LOS AMATES,21KJN1302E,PREESCOLAR COMUNITARIO LOS AMATES,21, DAÑO MENOR ,SEGUNDA ETAPA A,100,18.473788,-98.366541
715,IZÚCAR DE MATAMOROS,SAN LUCAS COLUCAN,21DPR2454X,JOSE MARIA MORELOS,246, DAÑO MAYOR ,ESCUELAS AL CIEN 2018,100,18.509167,-98.479722
716,IZÚCAR DE MATAMOROS,SAN NICOLAS TOLENTINO,21DES0032V,PLAN DE AYALA,517, DAÑO MAYOR ,DONACIÓN,100,18.552902,-98.502366
717,IZÚCAR DE MATAMOROS,SAN MIGUEL LAS MINAS,21DPR2495X,JOSE MARIA MORELOS,139, DAÑO PARCIAL ,ESCUELAS AL CIEN 2018,100,18.518333,-98.334167
718,IZÚCAR DE MATAMOROS,MATZACO,21DPR0771X,LAZARO CARDENAS,164, DAÑO PARCIAL ,ESCUELAS AL CIEN 2018,100,18.555927,-98.490406
719,IZÚCAR DE MATAMOROS,HUAXTEPEC,21KJN0484X,PREESCOLAR COMUNITARIO RURAL HUAXTEPEC,11, DAÑO MENOR ,TERCERA ETAPA,100,18.381667,-98.455556
720,IZÚCAR DE MATAMOROS,SAN RAFAEL,21KJN0412D,PREESCOLAR COMUNITARIO RURAL SAN RAFAEL,1, DAÑO MENOR ,TERCERA ETAPA,100,18.420466,-98.460819
721,IZÚCAR DE MATAMOROS,IZUCAR DE MATAMOROS,21DJN2513F,PREESCOLAR GENERAL,32, DAÑO MENOR ,SEGUNDA ETAPA A,100,18.599125,-98.467785
722,SAN MARTÍN TOTOLTEPEC,SAN MARTIN TOTOLTEPEC,21DPR0319E,JOSE MARIA MORELOS,98, DAÑO MAYOR ,ESCUELAS AL CIEN 2018,100,18.651389,-98.346111
723,IZÚCAR DE MATAMOROS,HUAXTEPEC,21KPR1007T,PRIMARIA COMUNITARIA RURAL HUAXTEPEC,15, DAÑO MENOR ,TERCERA ETAPA,100,18.381667,-98.455556
724,JUAN C. BONILLA,SANTA MARIA ZACATEPEC,21DPR2452Z,FRAY BARTOLOME DE LAS CASAS,344, DAÑO MENOR ,TERCERA ETAPA,100,19.102656,-98.348609
725,OCOYUCAN,SANTA MARTHA HIDALGO,21EJN0127Y,OCTIL ANCATL MIAC XOCHITL,103, DAÑO MENOR ,SEGUNDA ETAPA A,100,18.985,-98.324444
726,OCOYUCAN,SANTA MARTHA HIDALGO,21DPR1211U,EMANCIPACION,161, DAÑO MENOR ,SEGUNDA ETAPA A,100,18.985,-98.324444
727,OCOYUCAN,CHALCHIHUAPAN,21DCC0128I,GUILLERMO JIMENEZ MORALES,202, DAÑO MENOR ,SEGUNDA ETAPA A,100,18.971026,-98.334239
728,HUEJOTZINGO,SANTA ANA XALMIMILULCO,21DPR2420G,RAFAEL SERRANO,669, DAÑO MENOR ,TERCERA ETAPA,0,19.206475,-98.383373
729,SAN MIGUEL XOXTLA,SAN MIGUEL XOXTLA,21DPR0323R,AQUILES SERDAN,671, DAÑO MENOR ,OTROS RECURSOS,100,19.171988,-98.307161
730,SAN SALVADOR EL VERDE,SAN LUCAS EL GRANDE,21DPR0357H,JOSE MARIA MORELOS Y PAVON,654, DAÑO MENOR ,TERCERA ETAPA,0,19.304882,-98.474812
731,TEPEOJUMA,TEPEOJUMA,21EPR0428K,MIGUEL HIDALGO,500, DAÑO MAYOR ,ESCUELAS AL CIEN 2018,100,18.723121,-98.449301
732,PUEBLA,SAN MIGUEL CANOA,21EPR0241G,JOSE MARIA MORELOS Y PAVON,609, DAÑO MENOR ,TERCERA ETAPA,100,19.144462,-98.106358
733,TEPEXCO,TEPEXCO,21EPR0433W,20 DE NOVIEMBRE,179, DAÑO PARCIAL ,ESCUELAS AL CIEN 2018,100,18.643333,-98.691111
734,TEPEXCO,TEPEXCO,21EPR0707V,EMILIANO ZAPATA,291, DAÑO MAYOR ,ESCUELAS AL CIEN 2018,100,18.635713,-98.631015
735,SAN SALVADOR EL VERDE,SAN LUCAS EL GRANDE,21DES0103Z,AARON MERINO FERNANDEZ,603, DAÑO MENOR ,TERCERA ETAPA,0,19.307517,-98.474804
736,PUEBLA,HEROICA PUEBLA DE ZARAGOZA,21DPR2037K,MTRO. RAUL ISIDRO BURGOS,639, DAÑO MENOR ,TERCERA ETAPA,0,19.011254,-98.231751
737,SAN PEDRO CHOLULA,CHOLULA DE RIVADAVIA,21EBH0100Y,SARA MARIA BASAVE DE TOXQUI,597, DAÑO MENOR ,TERCERA ETAPA,0,19.039536,-98.221289
738,TEHUACÁN,TEHUACAN,21DPR0413J,BRAULIO RODRIGUEZ,633, DAÑO MENOR ,TERCERA ETAPA,0,18.467886,-97.379889
739,TEHUACÁN,MAGDALENA CUAYUCATEPEC,21DPR2804L,NARCISO MENDOZA,634, DAÑO MENOR ,TERCERA ETAPA,0,18.547546,-97.485616
740,OCOYUCAN,SAN BERNABE TEMOXTITLA,21DJN2357E,NEZAHUALCÓYOTL,117, DAÑO MENOR ,SEGUNDA ETAPA A,85,18.996085,-98.330755
741,OCOYUCAN,SANTA CRUZ HIDALGO (SANTA MARTHA HIDALGO),21DPR2686N,BENITO JUAREZ,42, DAÑO MENOR ,SEGUNDA ETAPA A,100,18.913889,-98.354444
742,OCOYUCAN,FRANCISCO SARABIA,21DJN0820Z,FRANCISCO SARABIA,77, DAÑO MENOR ,SEGUNDA ETAPA A,100,18.964167,-98.313889
743,OCOYUCAN,FRANCISCO SARABIA,21DPR1096T,MIGUEL HIDALGO,173, DAÑO MENOR ,SEGUNDA ETAPA A,100,18.964167,-98.313889
744,OCOYUCAN,LA PASTORIA,21DPR1532D,IGNACIO ZARAGOZA,41, DAÑO MENOR ,SEGUNDA ETAPA A,100,18.877596,-98.318521
745,OCOYUCAN,SAN BERNARDINO CHALCHIHUAPAN,21ETV0533U,AMADO CAMACHO,44, DAÑO MENOR ,SEGUNDA ETAPA A,96,18.977432,-98.339348
746,TILAPA,TILAPA,21EPR0695G,NARCISO MENDOZA,79, DAÑO PARCIAL ,ESCUELAS AL CIEN 2018,100,18.593939,-98.554562
747,OCOYUCAN,SAN ISIDRO PETLACATL,21DJN1678H,JOSE LUIS RODRIGUEZ ALCONEDO,32, DAÑO MENOR ,SEGUNDA ETAPA A,100,18.965556,-98.300278
748,TILAPA,TILAPA,21ETV0478R,ROSARIO CASTELLANOS,108, DAÑO PARCIAL ,ESCUELAS AL CIEN 2018,100,18.588619,-98.552365
749,OCOYUCAN,SANTA CLARA OCOYUCAN,21EBH0538G,FRANCISCO VILLA,143, DAÑO MENOR ,SEGUNDA ETAPA A,100,19.073836,-98.172629
750,OCOYUCAN,SANTA CLARA OCOYUCAN,21ETV0117G,JUAN N. NAVARRO,241, DAÑO MENOR ,SEGUNDA ETAPA A,100,18.977149,-98.302301
751,OCOYUCAN,SANTA CLARA OCOYUCAN,21DJN2335T,MIGUEL HIDALGO Y COSTILLA,118, DAÑO MENOR ,SEGUNDA ETAPA A,100,18.976944,-98.301389
752,OCOYUCAN,SANTA CLARA OCOYUCAN,21DJN2358D,TLANESI,82, DAÑO MENOR ,SEGUNDA ETAPA A,100,18.935973,-98.268181
753,OCOYUCAN,SANTA CLARA OCOYUCAN,21DJN2336S,YOLOTZIN,81, DAÑO MENOR ,SEGUNDA ETAPA A,100,18.976944,-98.301389
754,OCOYUCAN,SANTA MARIA MALACATEPEC,21DJN2274W,CALMECAC,51, DAÑO MENOR ,SEGUNDA ETAPA A,100,18.941944,-98.301913
755,OCOYUCAN,SANTA MARIA MALACATEPEC,21DJN2338Q,FRANCISCO GABILONDO SOLER,103, DAÑO MENOR ,SEGUNDA ETAPA A,100,18.943056,-98.301667
756,OCOYUCAN,SANTA MARIA MALACATEPEC,21EPR1614M,PRIMARIA GENERAL,196, DAÑO MENOR ,SEGUNDA ETAPA A,100,18.933713,-98.268662
757,PUEBLA,HEROICA PUEBLA DE ZARAGOZA,21EPR0294L,LEONA VICARIO,0, DAÑO MAYOR ,SEGUNDA ETAPA A,100,19.046111,-98.205899
758,OCOYUCAN,SANTA CLARA OCOYUCAN,21EBH0151E,PROGRESO DE LAS AMERICAS,238, DAÑO MENOR ,OTROS RECURSOS,100,20.024108,-97.647191
759,PUEBLA,HEROICA PUEBLA DE ZARAGOZA,21EBH0226E,BACHILLERATO INSURGENTES,484, DAÑO MENOR ,SEGUNDA ETAPA A,100,20.225687,-98.108659
760,PUEBLA,HEROICA PUEBLA DE ZARAGOZA,21EPR0517D,DEFENSORES DE LA REPUBLICA,187, DAÑO MENOR ,SEGUNDA ETAPA A,100,19.058116,-98.211664
761,PUEBLA,HEROICA PUEBLA DE ZARAGOZA,21EJN0039D,FEDERICO FROEBEL,182, DAÑO MENOR ,SEGUNDA ETAPA A,100,19.051893,-98.194337
762,PUEBLA,HEROICA PUEBLA DE ZARAGOZA,21EES0283Z,DEFENSORES DE LA PATRIA,128, DAÑO MENOR ,SEGUNDA ETAPA A,100,19.057604,-98.210526
763,PUEBLA,HEROICA PUEBLA DE ZARAGOZA,21EML0001Q,CENTRO DE ATENCIÓN MÚLTIPLE CLUB DE LEONES,43, DAÑO MENOR ,TERCERA ETAPA,0,19.815556,-97.806944
764,SAN PEDRO CHOLULA,CHOLULA DE RIVADAVIA,21EPR0498F,C.E. PRESIDENTE LICENCIADO MIGUEL ALEMÁN,616, DAÑO MENOR ,TERCERA ETAPA,100,19.061909,-98.311408
765,HUEJOTZINGO,HUEJOTZINGO,21EBH0118X,C.E. PROFESOR ENRIQUE MARTINEZ MARQUEZ,611, DAÑO MENOR ,OTROS RECURSOS,100,18.885278,-97.727778
766,AMOZOC,AMOZOC DE MOTA,21DPR0926I,VICENTE SUAREZ,612, DAÑO MENOR ,TERCERA ETAPA,0,19.06435,-98.045785
767,PUEBLA,HEROICA PUEBLA DE ZARAGOZA,21DPR1563X,MARIANO MATAMOROS,619, DAÑO MENOR ,TERCERA ETAPA,0,18.945775,-98.159248
768,TEHUACÁN,TEHUACAN,21EES0011H,C.E. PRESIDENTE VENUSTIANO CARRANZA,589, DAÑO MENOR ,TERCERA ETAPA,0,18.469243,-97.397099
769,PUEBLA,HEROICA PUEBLA DE ZARAGOZA,21EES0091J,VENUSTIANO CARRANZA,547, DAÑO MENOR ,TERCERA ETAPA,0,19.040514,-98.214473
770,PUEBLA,AGUA SANTA,21DST0089O,ESCUELA SECUNDARIA TECNICA NUM. 80,901, DAÑO MAYOR ,ESCUELAS AL CIEN 2018,100,18.992146,-98.239319
771,PUEBLA,AGUA SANTA,21EPR0723M,PROFESORA AMALIA CONTRERAS DE LOBATO,1391, DAÑO MAYOR ,ESCUELAS AL CIEN 2018,100,18.98757,-98.244185
772,YEHUALTEPEC,SAN GABRIEL TETZOYOCAN,21DPR0781D,BENITO JUAREZ,588, DAÑO MENOR ,OTROS RECURSOS,100,18.761121,-97.704639
773,SAN SALVADOR EL VERDE,SAN SALVADOR EL VERDE,21DCT0309I,CENTRO DE BACHILLERATO TECNOLOGICO INDUSTRIAL Y DE SERVICIOS NUM. 252,544, DAÑO MENOR ,TERCERA ETAPA,0,18.834626,-97.541419
774,SAN MARTÍN TEXMELUCAN,SAN MARTIN TEXMELUCAN DE LABASTIDA,21DPR1527S,VENUSTIANO CARRANZA,569, DAÑO MENOR ,TERCERA ETAPA,100,19.286631,-98.428146
775,TEHUACÁN,TEHUACAN,21DPB0681D,FUERTE DE LORETO,550, DAÑO MENOR ,TERCERA ETAPA,0,18.446605,-97.412046
776,PUEBLA,HEROICA PUEBLA DE ZARAGOZA,21DPR3643W,16 DE SEPTIEMBRE DE 1810,613, DAÑO PARCIAL ,ESCUELAS AL CIEN 2018,100,18.985131,-98.217212
777,SAN MARTÍN TEXMELUCAN,SAN MARTIN TEXMELUCAN DE LABASTIDA,21EPR0379S,EUFROSINA CAMACHO VIUDA DE AVILA,536, DAÑO MENOR ,TERCERA ETAPA,0,19.284786,-98.43766
778,TEHUACÁN,TEHUACAN,21DPR2972H,LIBERACION,525, DAÑO MENOR ,TERCERA ETAPA,0,18.476999,-97.397032
779,TEHUACÁN,SANTA MARIA COAPAN,21ETV0211L,ISAAC OCHOTERENA,506, DAÑO MENOR ,TERCERA ETAPA,0,18.434981,-97.408114
780,AMOZOC,AMOZOC DE MOTA,21DPR3673Q,RAFAEL RAMIREZ,526, DAÑO MENOR ,TERCERA ETAPA,0,19.060803,-98.044903
781,SAN PEDRO CHOLULA,SAN GREGORIO ZACAPECHPAN,21DPR0345C,MIGUEL HIDALGO,526, DAÑO MENOR ,TERCERA ETAPA,0,19.054069,-98.349615
782,ACAJETE,TLACAMILCO,21DPR0928G,IGNACIO ZARAGOZA,512, DAÑO MENOR ,TERCERA ETAPA,0,19.060141,-97.927215
783,SAN MIGUEL XOXTLA,SAN MIGUEL XOXTLA,21ECB0016E,COLEGIO DE BACHILLERES PLANTEL  13,540, DAÑO MENOR ,TERCERA ETAPA,100,19.28833,-98.447302
784,SAN PEDRO CHOLULA,SAN CRISTOBAL TEPONTLA,21DPR0939M,IGNACIO ALLENDE,501, DAÑO MENOR ,OTROS RECURSOS,100,19.070059,-98.323033
785,YEHUALTEPEC,YEHUALTEPEC,21EPR0475V,BENITO JUAREZ,510, DAÑO MENOR ,OTROS RECURSOS,100,18.794029,-97.661856
786,TEPANCO DE LÓPEZ,SAN BARTOLO TEONTEPEC,21DPR0462S,GENERAL RAFAEL AVILA CAMACHO,507, DAÑO MENOR ,TERCERA ETAPA,0,18.489157,-97.523279
787,CORONANGO,SAN FRANCISCO OCOTLAN,21EPR1604F,JAIME SABINES,502, DAÑO MENOR ,OTROS RECURSOS,100,19.132222,-98.285278
788,JUAN C. BONILLA,CUANALA,21EPR0182H,IGNACIO ZARAGOZA,505, DAÑO MENOR ,TERCERA ETAPA,0,19.111192,-98.331506
789,PUEBLA,SANTA CATARINA,21DPR3505U,20 DE NOVIEMBRE,446, DAÑO MENOR ,OTROS RECURSOS,100,18.97307,-98.163495
790,TEHUACÁN,TEHUACAN,21DPR2650Z,PLAN DE AYALA,466, DAÑO MENOR ,OTROS RECURSOS,100,18.441509,-97.40167
791,PUEBLA,HEROICA PUEBLA DE ZARAGOZA,21MSU9011Q,BENEMERITO INSTITUTO NORMAL DEL ESTADO GENERAL JUAN CRISOSTOMO BONILLA,1726, DAÑO PARCIAL ,ESCUELAS AL CIEN 2018,100,19.065302,-98.224126
792,PUEBLA,HEROICA PUEBLA DE ZARAGOZA,21DCC0748Q,CITLALI,55, DAÑO MENOR ,SEGUNDA ETAPA A,100,18.981787,-98.208709
793,PUEBLA,HEROICA PUEBLA DE ZARAGOZA,21DES0027J,GOBERNADOR MERINO FERNANDEZ,717, DAÑO MENOR ,SEGUNDA ETAPA A,100,18.998327,-98.18995
794,PUEBLA,HEROICA PUEBLA DE ZARAGOZA,21EPR0358F,JOSEFA ORTIZ DE DOMINGUEZ,779, DAÑO MENOR ,SEGUNDA ETAPA A,100,18.966087,-98.185377
795,PUEBLA,HEROICA PUEBLA DE ZARAGOZA,21EBH0247R,RAQUEL FLORES GONZALEZ,323, DAÑO MENOR ,SEGUNDA ETAPA A,100,18.902914,-98.253072
796,PUEBLA,HEROICA PUEBLA DE ZARAGOZA,21DPB0877P,IZTACCIHUATL,230, DAÑO MENOR ,SEGUNDA ETAPA A,100,18.964908,-98.271893
797,CHIAUTLA,CIUDAD DE CHIAUTLA DE TAPIA,21EJN0730F,MEXICALCINGO,0, DAÑO MENOR ,OTROS RECURSOS,100,18.264086,-98.428042
798,PUEBLA,HEROICA PUEBLA DE ZARAGOZA,21EPR0565N,PROFESORA PAULINA MARAVER CORTES,736, DAÑO MENOR ,SEGUNDA ETAPA A,100,19.006118,-98.184166
799,PUEBLA,SAN BALTAZAR TETELA,21DTV0102F,JUSTO SIERRA,259, DAÑO MENOR ,SEGUNDA ETAPA A,100,18.912904,-98.173492
800,PUEBLA,HEROICA PUEBLA DE ZARAGOZA,21DPB0634T,EMILIANO ZAPATA,444, DAÑO MENOR ,TERCERA ETAPA,0,19.067611,-98.133867
